[{"name":"大陆领海基线","points":[{"name":"山东高角（1）","lat":37.4,"lng":122.7},{"name":"山东高角（1）","lat":37.3833333333333,"lng":122.7},{"name":"镆耶岛（1）","lat":36.95,"lng":122.566666666667},{"name":"镆耶岛（2）","lat":36.9166666666667,"lng":122.533333333333},{"name":"镆耶岛（3）","lat":36.8833333333333,"lng":122.516666666667},{"name":"苏山岛","lat":36.7333333333333,"lng":122.25},{"name":"朝连岛","lat":35.8833333333333,"lng":120.883333333333},{"name":"达山岛","lat":35,"lng":119.9},{"name":"麻菜珩","lat":33.35,"lng":121.333333333333},{"name":"外磕脚","lat":33,"lng":121.633333333333},{"name":"佘山岛","lat":31.4166666666667,"lng":122.233333333333},{"name":"海礁","lat":30.7333333333333,"lng":123.15},{"name":"东南礁","lat":30.7166666666667,"lng":123.15},{"name":"两兄弟屿","lat":30.1666666666667,"lng":122.933333333333},{"name":"渔山列岛","lat":28.8833333333333,"lng":122.266666666667},{"name":"台州列岛（1）","lat":28.3833333333333,"lng":121.916666666667},{"name":"台州列岛（2）","lat":28.3833333333333,"lng":121.9},{"name":"稻挑山","lat":27.45,"lng":121.116666666667},{"name":"东引岛","lat":26.3666666666667,"lng":120.5},{"name":"东沙岛","lat":26.15,"lng":120.4},{"name":"牛山岛","lat":25.4166666666667,"lng":119.933333333333},{"name":"乌丘屿","lat":24.9666666666667,"lng":119.466666666667},{"name":"东碇岛","lat":24.15,"lng":118.233333333333},{"name":"大柑山","lat":23.5166666666667,"lng":117.683333333333},{"name":"南澎列岛（1）","lat":23.2,"lng":117.233333333333},{"name":"南澎列岛（2）","lat":23.2,"lng":117.216666666667},{"name":"石碑山角","lat":22.9333333333333,"lng":116.483333333333},{"name":"针头岩","lat":22.3,"lng":115.116666666667},{"name":"佳蓬列岛","lat":21.8,"lng":113.966666666667},{"name":"围夹岛","lat":21.5666666666667,"lng":112.783333333333},{"name":"大帆石","lat":21.45,"lng":112.35},{"name":"七洲列岛","lat":19.9666666666667,"lng":111.266666666667},{"name":"观帆","lat":19.8833333333333,"lng":111.2},{"name":"大洲岛（1）","lat":18.65,"lng":110.483333333333},{"name":"大洲岛（2）","lat":18.65,"lng":110.483333333333},{"name":"双帆石","lat":18.4333333333333,"lng":110.133333333333},{"name":"陵水角","lat":18.3833333333333,"lng":110.05},{"name":"东洲（1）","lat":18.1833333333333,"lng":109.7},{"name":"东洲（2）","lat":18.1833333333333,"lng":109.683333333333},{"name":"锦母角","lat":18.15,"lng":109.566666666667},{"name":"深石礁","lat":18.2333333333333,"lng":109.116666666667},{"name":"西鼓岛","lat":18.3166666666667,"lng":108.95},{"name":"莺歌嘴（1）","lat":18.5,"lng":108.683333333333},{"name":"莺歌嘴（2）","lat":18.5,"lng":108.683333333333},{"name":"莺歌嘴（3）","lat":18.5166666666667,"lng":108.666666666667},{"name":"莺歌嘴（4）","lat":18.5166666666667,"lng":108.666666666667},{"name":"感恩角","lat":18.8333333333333,"lng":108.616666666667},{"name":"四更沙角","lat":19.1833333333333,"lng":108.6},{"name":"峻壁角","lat":19.35,"lng":108.633333333333}]},{"name":"西沙群岛","points":[{"name":"东岛（1）","lat":16.6666666666667,"lng":112.733333333333},{"name":"东岛（2）","lat":16.6666666666667,"lng":112.733333333333},{"name":"东岛（3）","lat":16.65,"lng":112.733333333333},{"name":"浪花礁（1）","lat":16.0666666666667,"lng":112.583333333333},{"name":"浪花礁（2）","lat":16.0166666666667,"lng":112.533333333333},{"name":"浪花礁（3）","lat":16.0166666666667,"lng":112.516666666667},{"name":"浪花礁（4）","lat":16.0166666666667,"lng":112.483333333333},{"name":"中建岛（1）","lat":15.7666666666667,"lng":111.2},{"name":"中建岛（2）","lat":15.7666666666667,"lng":111.2},{"name":"中建岛（3）","lat":15.7666666666667,"lng":111.183333333333},{"name":"中建岛（4）","lat":15.7666666666667,"lng":111.183333333333},{"name":"中建岛（5）","lat":15.7666666666667,"lng":111.183333333333},{"name":"中建岛（6）","lat":15.7666666666667,"lng":111.183333333333},{"name":"中建岛（7）","lat":15.7833333333333,"lng":111.183333333333},{"name":"北礁（1）","lat":17.0666666666667,"lng":111.433333333333},{"name":"北礁（2）","lat":17.0833333333333,"lng":111.433333333333},{"name":"北礁（3）","lat":17.0833333333333,"lng":111.45},{"name":"北礁（4）","lat":17.1,"lng":111.45},{"name":"北礁（5）","lat":17.1,"lng":111.483333333333},{"name":"北礁（6）","lat":17.1166666666667,"lng":111.516666666667},{"name":"北礁（7）","lat":17.1166666666667,"lng":111.516666666667},{"name":"北礁（8）","lat":17.1,"lng":111.533333333333},{"name":"赵述岛（1）","lat":16.9833333333333,"lng":112.233333333333},{"name":"赵述岛（3）","lat":16.9833333333333,"lng":112.25},{"name":"赵述岛（3）","lat":16.9833333333333,"lng":112.266666666667},{"name":"北岛","lat":16.9666666666667,"lng":112.3},{"name":"中岛北纬1","lat":16.95,"lng":112.316666666667},{"name":"南岛北纬1","lat":16.9333333333333,"lng":112.333333333333},{"name":"东岛（1）","lat":16.6666666666667,"lng":112.733333333333}]},{"name":"钓鱼岛","points":[{"name":"钓鱼岛1","lat":25.7333333333333,"lng":123.45},{"name":"钓鱼岛2","lat":25.7333333333333,"lng":123.45},{"name":"钓鱼岛3","lat":25.7333333333333,"lng":123.45},{"name":"钓鱼岛4","lat":25.7333333333333,"lng":123.45},{"name":"海豚岛","lat":25.9166666666667,"lng":123.666666666667},{"name":"下虎牙岛","lat":25.9166666666667,"lng":123.683333333333},{"name":"海星岛","lat":25.9166666666667,"lng":123.683333333333},{"name":"黄尾屿","lat":25.9166666666667,"lng":123.683333333333},{"name":"海龟岛","lat":25.9166666666667,"lng":123.683333333333},{"name":"长龙岛","lat":25.7166666666667,"lng":123.55},{"name":"南小岛","lat":25.7166666666667,"lng":123.55},{"name":"鲳鱼岛","lat":25.7333333333333,"lng":123.45},{"name":"钓鱼岛1","lat":25.7333333333333,"lng":123.45}]},{"name":"赤尾屿","points":[{"name":"赤尾屿","lat":25.9166666666667,"lng":124.55},{"name":"望赤岛","lat":25.9166666666667,"lng":124.55},{"name":"小赤尾岛","lat":25.9166666666667,"lng":124.55},{"name":"赤背","lat":25.9166666666667,"lng":124.55},{"name":"赤背","lat":25.9166666666667,"lng":124.55},{"name":"赤尾屿","lat":25.9166666666667,"lng":124.55}]}]