[{"id":10115,"cnname":"","enname":"Ramsey","cncountry":"","encountry":"","lat":54.316666,"lon":-4.366667,"timezone":"0","datumn":"在平均海平面下","tidetype":"不正规半日混合潮"},{"id":12090,"cnname":"","enname":"Oporto","cncountry":"","encountry":"","lat":41.173883,"lon":-8.70535,"timezone":"0","datumn":"在平均海平面下","tidetype":"不正规半日混合潮"},{"id":12872,"cnname":"","enname":"Figueira da Foz","cncountry":"","encountry":"","lat":40.143267,"lon":-8.875633,"timezone":"0","datumn":"在平均海平面下","tidetype":"不正规半日混合潮"},{"id":13493,"cnname":"","enname":"Vila Real de Santo Antonio","cncountry":"","encountry":"","lat":37.2019,"lon":-7.41475,"timezone":"0","datumn":"在平均海平面下","tidetype":"不正规半日混合潮"},{"id":27502,"cnname":"","enname":"Douglas","cncountry":"","encountry":"","lat":54.14765,"lon":-4.46635,"timezone":"0","datumn":"在平均海平面下","tidetype":"不正规半日混合潮"},{"id":29883,"cnname":"","enname":"Peel","cncountry":"","encountry":"","lat":54.2269,"lon":-4.694583,"timezone":"0","datumn":"在平均海平面下","tidetype":"不正规半日混合潮"},{"id":208866,"cnname":"","enname":"Jebel Ali","cncountry":"阿联酋","encountry":"United Arab Emirates","lat":25.0267,"lon":55.032417,"timezone":"4","datumn":"在平均海平面下","tidetype":"不正规半日混合潮"},{"id":214155,"cnname":"","enname":"Dubai","cncountry":"阿联酋","encountry":"United Arab Emirates","lat":25.269917,"lon":55.279517,"timezone":"4","datumn":"在平均海平面下","tidetype":"不正规半日混合潮"},{"id":25632,"cnname":"","enname":"Sharjah","cncountry":"阿联酋","encountry":"United Arab Emirates","lat":25.367,"lon":55.36955,"timezone":"4","datumn":"在平均海平面下","tidetype":"不正规半日混合潮"},{"id":20571,"cnname":"","enname":"Ajman","cncountry":"阿联酋","encountry":"United Arab Emirates","lat":25.424033,"lon":55.454983,"timezone":"4","datumn":"在平均海平面下","tidetype":"不正规半日混合潮"},{"id":440745,"cnname":"","enname":"Khawr Fakkan","cncountry":"阿联酋","encountry":"United Arab Emirates","lat":25.3616,"lon":56.3649,"timezone":"4","datumn":"在平均海平面下","tidetype":"不正规半日混合潮"},{"id":440825,"cnname":"","enname":"Jabal Az Zannah","cncountry":"阿联酋","encountry":"United Arab Emirates","lat":24.168267,"lon":52.682467,"timezone":"4","datumn":"在平均海平面下","tidetype":"正规日潮"},{"id":18168,"cnname":"","enname":"Shengjin","cncountry":"阿尔巴尼亚","encountry":"Albania","lat":41.811467,"lon":19.587683,"timezone":"1","datumn":"在平均海平面下","tidetype":"不正规半日混合潮"},{"id":13497,"cnname":"","enname":"Durres","cncountry":"阿尔巴尼亚","encountry":"Albania","lat":41.303267,"lon":19.456,"timezone":"1","datumn":"在平均海平面下","tidetype":"不正规半日混合潮"},{"id":14014,"cnname":"","enname":"Namibe","cncountry":"安哥拉","encountry":"Angola","lat":-15.161733,"lon":12.13335,"timezone":"1","datumn":"在平均海平面下","tidetype":"不正规半日混合潮"},{"id":16274,"cnname":"","enname":"Porto Amboim","cncountry":"安哥拉","encountry":"Angola","lat":-10.745167,"lon":13.735833,"timezone":"1","datumn":"在平均海平面下","tidetype":"不正规半日混合潮"},{"id":16297,"cnname":"","enname":"Soyo","cncountry":"安哥拉","encountry":"Angola","lat":-6.110767,"lon":12.3296,"timezone":"1","datumn":"在平均海平面下","tidetype":"不正规半日混合潮"},{"id":15340,"cnname":"","enname":"Punta Quilla","cncountry":"阿根廷","encountry":"Argentina","lat":-50.117383,"lon":-68.403617,"timezone":"-3","datumn":"在平均海平面下","tidetype":"不正规半日混合潮"},{"id":14247,"cnname":"","enname":"Comodoro Rivadavia","cncountry":"阿根廷","encountry":"Argentina","lat":-45.849998,"lon":-67.433333,"timezone":"-3","datumn":"在平均海平面下","tidetype":"不正规半日混合潮"},{"id":14502,"cnname":"","enname":"Puerto Madryn","cncountry":"阿根廷","encountry":"Argentina","lat":-42.73525,"lon":-65.015117,"timezone":"-3","datumn":"在平均海平面下","tidetype":"不正规半日混合潮"},{"id":14536,"cnname":"","enname":"Mar del Plata","cncountry":"阿根廷","encountry":"Argentina","lat":-38,"lon":-57.533333,"timezone":"-3","datumn":"在平均海平面下","tidetype":"不正规半日混合潮"},{"id":16902,"cnname":"","enname":"Puerto Belgrano","cncountry":"阿根廷","encountry":"Argentina","lat":-38.900002,"lon":-62.1,"timezone":"-3","datumn":"在平均海平面下","tidetype":"不正规半日混合潮"},{"id":16943,"cnname":"","enname":"Puerto Rosales","cncountry":"阿根廷","encountry":"Argentina","lat":-38.93015,"lon":-62.070517,"timezone":"-3","datumn":"在平均海平面下","tidetype":"不正规半日混合潮"},{"id":26670,"cnname":"","enname":"Buenos Aires","cncountry":"阿根廷","encountry":"Argentina","lat":-34.592567,"lon":-58.360117,"timezone":"-3","datumn":"在平均海平面下","tidetype":"不正规半日混合潮"},{"id":30032,"cnname":"","enname":"Punta Loyola","cncountry":"阿根廷","encountry":"Argentina","lat":-51.599998,"lon":-69.016667,"timezone":"-3","datumn":"在平均海平面下","tidetype":"不正规半日混合潮"},{"id":29734,"cnname":"","enname":"Cabo San Antonio","cncountry":"阿根廷","encountry":"Argentina","lat":-36.6666,"lon":-56.5,"timezone":"-3","datumn":"在平均海平面下","tidetype":"不正规半日混合潮"},{"id":221704,"cnname":"","enname":"Quequen","cncountry":"阿根廷","encountry":"Argentina","lat":-38.583433,"lon":-58.6957,"timezone":"-3","datumn":"在平均海平面下","tidetype":"不正规半日混合潮"},{"id":255219,"cnname":"","enname":"Port Welshpool","cncountry":"澳大利亚","encountry":"Australia","lat":-38.7009,"lon":146.464783,"timezone":"10","datumn":"在平均海平面下","tidetype":"正规半日潮"},{"id":255245,"cnname":"","enname":"Derby","cncountry":"澳大利亚","encountry":"Australia","lat":-17.291933,"lon":123.607733,"timezone":"8","datumn":"在平均海平面下","tidetype":"不正规半日混合潮"},{"id":385035,"cnname":"","enname":"Onslow","cncountry":"澳大利亚","encountry":"Australia","lat":-21.626533,"lon":115.0967,"timezone":"8","datumn":"在平均海平面下","tidetype":"不正规半日混合潮"},{"id":29846,"cnname":"","enname":"Karumba","cncountry":"澳大利亚","encountry":"Australia","lat":-17.466667,"lon":140.833333,"timezone":"10","datumn":"在平均海平面下","tidetype":"不正规半日混合潮"},{"id":213140,"cnname":"","enname":"Port Jackson","cncountry":"澳大利亚","encountry":"Australia","lat":-33.84155,"lon":151.191833,"timezone":"12","datumn":"在平均海平面下","tidetype":"不正规半日混合潮"},{"id":26694,"cnname":"","enname":"Hobart","cncountry":"澳大利亚","encountry":"Australia","lat":-42.88645,"lon":147.344667,"timezone":"10","datumn":"在平均海平面下","tidetype":"不正规半日混合潮"},{"id":26765,"cnname":"","enname":"Port Alma","cncountry":"澳大利亚","encountry":"Australia","lat":-23.583334,"lon":150.863333,"timezone":"10","datumn":"在平均海平面下","tidetype":"不正规半日混合潮"},{"id":26803,"cnname":"","enname":"Wyndham","cncountry":"澳大利亚","encountry":"Australia","lat":-15.454417,"lon":128.09085,"timezone":"8","datumn":"在平均海平面下","tidetype":"不正规半日混合潮"},{"id":26912,"cnname":"","enname":"Yamba","cncountry":"澳大利亚","encountry":"Australia","lat":-29.41665,"lon":153.36665,"timezone":"10","datumn":"在平均海平面下","tidetype":"不正规半日混合潮"},{"id":26938,"cnname":"","enname":"Useless Loop","cncountry":"澳大利亚","encountry":"Australia","lat":-26.083334,"lon":113.4,"timezone":"8","datumn":"在平均海平面下","tidetype":"不正规半日混合潮"},{"id":27040,"cnname":"","enname":"George Town","cncountry":"澳大利亚","encountry":"Australia","lat":-41.066666,"lon":146.800003,"timezone":"-5","datumn":"在平均海平面下","tidetype":"不正规半日混合潮"},{"id":27537,"cnname":"","enname":"Kingscote","cncountry":"澳大利亚","encountry":"Australia","lat":-35.650002,"lon":137.65,"timezone":"9.5","datumn":"在平均海平面下","tidetype":"不正规半日混合潮"},{"id":27604,"cnname":"","enname":"Penneshaw","cncountry":"澳大利亚","encountry":"Australia","lat":-35.71695,"lon":137.943283,"timezone":"9.5","datumn":"在平均海平面下","tidetype":"不正规半日混合潮"},{"id":27328,"cnname":"","enname":"Cape Jervis","cncountry":"澳大利亚","encountry":"Australia","lat":-35.605933,"lon":138.093633,"timezone":"9.5","datumn":"在平均海平面下","tidetype":"不正规半日混合潮"},{"id":26383,"cnname":"","enname":"Burnie","cncountry":"澳大利亚","encountry":"Australia","lat":-41.047333,"lon":145.923517,"timezone":"10","datumn":"在平均海平面下","tidetype":"不正规半日混合潮"},{"id":26516,"cnname":"","enname":"Cape Flattery","cncountry":"澳大利亚","encountry":"Australia","lat":-14.916667,"lon":145.333333,"timezone":"-8","datumn":"在平均海平面下","tidetype":"不正规半日混合潮"},{"id":26631,"cnname":"","enname":"Esperance","cncountry":"澳大利亚","encountry":"Australia","lat":-33.868417,"lon":121.899917,"timezone":"8","datumn":"在平均海平面下","tidetype":"不正规半日混合潮"},{"id":24017,"cnname":"","enname":"Launceston","cncountry":"澳大利亚","encountry":"Australia","lat":-41.049999,"lon":146.766667,"timezone":"10","datumn":"在平均海平面下","tidetype":"正规半日潮"},{"id":17082,"cnname":"","enname":"Lucinda","cncountry":"澳大利亚","encountry":"Australia","lat":-18.5214,"lon":146.390567,"timezone":"10","datumn":"在平均海平面下","tidetype":"不正规半日混合潮"},{"id":17126,"cnname":"","enname":"Mackay","cncountry":"澳大利亚","encountry":"Australia","lat":-21.10545,"lon":149.2327,"timezone":"10","datumn":"在平均海平面下","tidetype":"不正规半日混合潮"},{"id":17218,"cnname":"","enname":"Melbourne","cncountry":"澳大利亚","encountry":"Australia","lat":-37.856017,"lon":144.920333,"timezone":"10","datumn":"在平均海平面下","tidetype":"不正规半日混合潮"},{"id":16558,"cnname":"","enname":"Fremantle","cncountry":"澳大利亚","encountry":"Australia","lat":-32.056133,"lon":115.729917,"timezone":"8","datumn":"在平均海平面下","tidetype":"不正规半日混合潮"},{"id":16631,"cnname":"","enname":"Geelong","cncountry":"澳大利亚","encountry":"Australia","lat":-38.106783,"lon":144.36845,"timezone":"10","datumn":"在平均海平面下","tidetype":"不正规半日混合潮"},{"id":16718,"cnname":"","enname":"Gladstone","cncountry":"澳大利亚","encountry":"Australia","lat":-23.819233,"lon":151.296783,"timezone":"10","datumn":"在平均海平面下","tidetype":"不正规半日混合潮"},{"id":16663,"cnname":"","enname":"Geraldton","cncountry":"澳大利亚","encountry":"Australia","lat":-28.766666,"lon":114.6,"timezone":"8","datumn":"在平均海平面下","tidetype":"不正规半日混合潮"},{"id":16796,"cnname":"","enname":"Gove","cncountry":"澳大利亚","encountry":"Australia","lat":-12.210217,"lon":136.680967,"timezone":"9.5","datumn":"在平均海平面下","tidetype":"不正规半日混合潮"},{"id":16823,"cnname":"","enname":"Hay Point","cncountry":"澳大利亚","encountry":"Australia","lat":-21.266666,"lon":149.316667,"timezone":"10","datumn":"在平均海平面下","tidetype":"不正规半日混合潮"},{"id":17512,"cnname":"","enname":"Port Giles","cncountry":"澳大利亚","encountry":"Australia","lat":-35.033333,"lon":137.766667,"timezone":"9.5","datumn":"在平均海平面下","tidetype":"不正规半日混合潮"},{"id":17538,"cnname":"","enname":"Port Hedland","cncountry":"澳大利亚","encountry":"Australia","lat":-20.304867,"lon":118.57655,"timezone":"8","datumn":"在平均海平面下","tidetype":"不正规半日混合潮"},{"id":17572,"cnname":"","enname":"Port Kembla","cncountry":"澳大利亚","encountry":"Australia","lat":-34.4663,"lon":150.910917,"timezone":"10","datumn":"在平均海平面下","tidetype":"不正规半日混合潮"},{"id":17662,"cnname":"","enname":"Port Lincoln","cncountry":"澳大利亚","encountry":"Australia","lat":-34.712233,"lon":135.870733,"timezone":"9.5","datumn":"在平均海平面下","tidetype":"不正规半日混合潮"},{"id":17799,"cnname":"","enname":"Port Pirie","cncountry":"澳大利亚","encountry":"Australia","lat":-33.163117,"lon":138.015183,"timezone":"9.5","datumn":"在平均海平面下","tidetype":"不正规半日混合潮"},{"id":17831,"cnname":"","enname":"Port Walcott","cncountry":"澳大利亚","encountry":"Australia","lat":-20.57385,"lon":117.205567,"timezone":"8","datumn":"在平均海平面下","tidetype":"不正规半日混合潮"},{"id":17955,"cnname":"","enname":"Spring Bay","cncountry":"澳大利亚","encountry":"Australia","lat":-42.5475,"lon":147.92755,"timezone":"10","datumn":"在平均海平面下","tidetype":"不正规半日混合潮"},{"id":18069,"cnname":"","enname":"Thevenard","cncountry":"澳大利亚","encountry":"Australia","lat":-32.200001,"lon":133.566667,"timezone":"9.5","datumn":"在平均海平面下","tidetype":"不正规半日混合潮"},{"id":18134,"cnname":"","enname":"Thursday Island","cncountry":"澳大利亚","encountry":"Australia","lat":-10.589267,"lon":142.221433,"timezone":"10","datumn":"在平均海平面下","tidetype":"不正规半日混合潮"},{"id":18199,"cnname":"","enname":"Wallaroo","cncountry":"澳大利亚","encountry":"Australia","lat":-33.92615,"lon":137.608567,"timezone":"9.5","datumn":"在平均海平面下","tidetype":"不正规半日混合潮"},{"id":18202,"cnname":"","enname":"Weipa","cncountry":"澳大利亚","encountry":"Australia","lat":-12.666667,"lon":141.85,"timezone":"10","datumn":"在平均海平面下","tidetype":"不正规半日混合潮"},{"id":18152,"cnname":"","enname":"Townsville","cncountry":"澳大利亚","encountry":"Australia","lat":-19.241167,"lon":146.8338,"timezone":"10","datumn":"在平均海平面下","tidetype":"不正规半日混合潮"},{"id":18237,"cnname":"","enname":"Hastings","cncountry":"澳大利亚","encountry":"Australia","lat":-38.3944,"lon":145.246583,"timezone":"0","datumn":"在平均海平面下","tidetype":"不正规半日混合潮"},{"id":18303,"cnname":"","enname":"Whyalla","cncountry":"澳大利亚","encountry":"Australia","lat":-33.033333,"lon":137.6,"timezone":"9.5","datumn":"在平均海平面下","tidetype":"不正规半日混合潮"},{"id":18340,"cnname":"","enname":"Yampi Sound","cncountry":"澳大利亚","encountry":"Australia","lat":-16.146667,"lon":123.748333,"timezone":"8","datumn":"在平均海平面下","tidetype":"不正规半日混合潮"},{"id":18357,"cnname":"","enname":"Abbot Point","cncountry":"澳大利亚","encountry":"Australia","lat":-19.857233,"lon":148.087733,"timezone":"10","datumn":"在平均海平面下","tidetype":"不正规半日混合潮"},{"id":22191,"cnname":"","enname":"Cooktown","cncountry":"澳大利亚","encountry":"Australia","lat":-15.466666,"lon":145.25,"timezone":"10","datumn":"在平均海平面下","tidetype":"不正规半日混合潮"},{"id":15752,"cnname":"","enname":"Botany Bay","cncountry":"澳大利亚","encountry":"Australia","lat":-34,"lon":151.233333,"timezone":"10","datumn":"在平均海平面下","tidetype":"不正规半日混合潮"},{"id":16335,"cnname":"","enname":"Dampier","cncountry":"澳大利亚","encountry":"Australia","lat":-20.612817,"lon":116.744583,"timezone":"8","datumn":"在平均海平面下","tidetype":"不正规半日混合潮"},{"id":16369,"cnname":"","enname":"Darwin","cncountry":"澳大利亚","encountry":"Australia","lat":-12.466667,"lon":130.833333,"timezone":"9.5","datumn":"在平均海平面下","tidetype":"不正规半日混合潮"},{"id":16270,"cnname":"","enname":"Carnarvon","cncountry":"澳大利亚","encountry":"Australia","lat":-24.89465,"lon":113.647217,"timezone":"8","datumn":"在平均海平面下","tidetype":"不正规半日混合潮"},{"id":16471,"cnname":"","enname":"Eden","cncountry":"澳大利亚","encountry":"Australia","lat":-37.084533,"lon":149.901333,"timezone":"10","datumn":"在平均海平面下","tidetype":"不正规半日混合潮"},{"id":16228,"cnname":"","enname":"Cairns","cncountry":"澳大利亚","encountry":"Australia","lat":-16.916666,"lon":145.783333,"timezone":"10","datumn":"在平均海平面下","tidetype":"不正规半日混合潮"},{"id":15925,"cnname":"","enname":"Brisbane","cncountry":"澳大利亚","encountry":"Australia","lat":-27.350967,"lon":153.169467,"timezone":"10","datumn":"在平均海平面下","tidetype":"不正规半日混合潮"},{"id":15951,"cnname":"","enname":"Broome","cncountry":"澳大利亚","encountry":"Australia","lat":-18.00205,"lon":122.221833,"timezone":"8","datumn":"在平均海平面下","tidetype":"不正规半日混合潮"},{"id":15979,"cnname":"","enname":"Bunbury","cncountry":"澳大利亚","encountry":"Australia","lat":-33.3077,"lon":115.655817,"timezone":"8","datumn":"在平均海平面下","tidetype":"不正规半日混合潮"},{"id":11217,"cnname":"","enname":"Western Port","cncountry":"澳大利亚","encountry":"Australia","lat":-38.3944,"lon":145.246583,"timezone":"10","datumn":"在平均海平面下","tidetype":"不正规半日混合潮"},{"id":10747,"cnname":"","enname":"Emu Bay","cncountry":"澳大利亚","encountry":"Australia","lat":-41.047333,"lon":145.923517,"timezone":"9.5","datumn":"在平均海平面下","tidetype":"不正规半日混合潮"},{"id":18924,"cnname":"","enname":"Bridgetown","cncountry":"巴巴多斯","encountry":"Barbados","lat":13.083333,"lon":-59.6,"timezone":"-4","datumn":"在平均海平面下","tidetype":"不正规半日混合潮"},{"id":18889,"cnname":"","enname":"Chittagong","cncountry":"孟加拉国","encountry":"Bangladesh","lat":22.224717,"lon":91.8086,"timezone":"6","datumn":"在平均海平面下","tidetype":"不正规半日混合潮"},{"id":19057,"cnname":"","enname":"Antwerp","cncountry":"比利时","encountry":"Belgium","lat":51.286817,"lon":4.319283,"timezone":"1","datumn":"在平均海平面下","tidetype":"不正规半日混合潮"},{"id":19389,"cnname":"","enname":"Nieuwpoort","cncountry":"比利时","encountry":"Belgium","lat":51.150002,"lon":2.716667,"timezone":"1","datumn":"在平均海平面下","tidetype":"不正规半日混合潮"},{"id":19473,"cnname":"","enname":"Zeebrugge","cncountry":"比利时","encountry":"Belgium","lat":51.36265,"lon":3.191683,"timezone":"1","datumn":"在平均海平面下","tidetype":"不正规半日混合潮"},{"id":18713,"cnname":"","enname":"Mina Salman","cncountry":"巴林","encountry":"Bahrain","lat":26.1952,"lon":50.651167,"timezone":"3","datumn":"在平均海平面下","tidetype":"不正规半日混合潮"},{"id":16450,"cnname":"","enname":"Cotonou","cncountry":"贝宁","encountry":"Benin","lat":6.343333,"lon":2.431917,"timezone":"1","datumn":"在平均海平面下","tidetype":"不正规半日混合潮"},{"id":20665,"cnname":"","enname":"Muara","cncountry":"文莱","encountry":"Brunei Darussalam","lat":5.016667,"lon":115.066667,"timezone":"8","datumn":"在平均海平面下","tidetype":"不正规半日混合潮"},{"id":20754,"cnname":"","enname":"Seria","cncountry":"文莱","encountry":"Brunei Darussalam","lat":4.714283,"lon":114.3261,"timezone":"8","datumn":"在平均海平面下","tidetype":"不正规半日混合潮"},{"id":12787,"cnname":"","enname":"Kralendijk","cncountry":"荷兰加勒比区","encountry":"Bonaire, Sint Eustatius and Saba","lat":12.15,"lon":-68.283333,"timezone":"-4","datumn":"在平均海平面下","tidetype":"不正规半日混合潮"},{"id":20604,"cnname":"","enname":"Vitoria","cncountry":"巴西","encountry":"Brazil","lat":-20.3237,"lon":-40.332417,"timezone":"-3","datumn":"在平均海平面下","tidetype":"不正规半日混合潮"},{"id":20429,"cnname":"","enname":"Sao Francisco do Sul","cncountry":"巴西","encountry":"Brazil","lat":-26.234433,"lon":-48.6395,"timezone":"-3","datumn":"在平均海平面下","tidetype":"不正规半日混合潮"},{"id":20524,"cnname":"","enname":"Tramandai","cncountry":"巴西","encountry":"Brazil","lat":-30.022433,"lon":-50.084433,"timezone":"-3","datumn":"在平均海平面下","tidetype":"不正规半日混合潮"},{"id":20242,"cnname":"","enname":"Recife","cncountry":"巴西","encountry":"Brazil","lat":-8.055983,"lon":-34.867267,"timezone":"-3","datumn":"在平均海平面下","tidetype":"不正规半日混合潮"},{"id":20284,"cnname":"","enname":"Rio de Janeiro","cncountry":"巴西","encountry":"Brazil","lat":-22.88235,"lon":-43.197333,"timezone":"-3","datumn":"在平均海平面下","tidetype":"不正规半日混合潮"},{"id":20351,"cnname":"","enname":"Salvador","cncountry":"巴西","encountry":"Brazil","lat":-12.967717,"lon":-38.518467,"timezone":"-3","datumn":"在平均海平面下","tidetype":"不正规半日混合潮"},{"id":19675,"cnname":"","enname":"Angra dos Reis","cncountry":"巴西","encountry":"Brazil","lat":-23.013483,"lon":-44.313083,"timezone":"-3","datumn":"在平均海平面下","tidetype":"不正规半日混合潮"},{"id":19690,"cnname":"","enname":"Aracaju","cncountry":"巴西","encountry":"Brazil","lat":-10.933333,"lon":-37.033333,"timezone":"-3","datumn":"在平均海平面下","tidetype":"不正规半日混合潮"},{"id":19735,"cnname":"","enname":"Belem","cncountry":"巴西","encountry":"Brazil","lat":-1.441117,"lon":-48.49925,"timezone":"-3","datumn":"在平均海平面下","tidetype":"不正规半日混合潮"},{"id":19747,"cnname":"","enname":"Cabedelo","cncountry":"巴西","encountry":"Brazil","lat":-6.976267,"lon":-34.842017,"timezone":"-3","datumn":"在平均海平面下","tidetype":"不正规半日混合潮"},{"id":19878,"cnname":"","enname":"Ilheus","cncountry":"巴西","encountry":"Brazil","lat":-14.8,"lon":-39.033333,"timezone":"-3","datumn":"在平均海平面下","tidetype":"不正规半日混合潮"},{"id":19900,"cnname":"","enname":"Imbituba","cncountry":"巴西","encountry":"Brazil","lat":-28.222383,"lon":-48.654733,"timezone":"-3","datumn":"在平均海平面下","tidetype":"不正规半日混合潮"},{"id":19926,"cnname":"","enname":"Itajai","cncountry":"巴西","encountry":"Brazil","lat":-26.899128,"lon":-48.6646,"timezone":"-3","datumn":"在平均海平面下","tidetype":"不正规半日混合潮"},{"id":19979,"cnname":"","enname":"Maceio","cncountry":"巴西","encountry":"Brazil","lat":-9.683333,"lon":-35.733333,"timezone":"-3","datumn":"在平均海平面下","tidetype":"不正规半日混合潮"},{"id":20043,"cnname":"","enname":"Natal","cncountry":"巴西","encountry":"Brazil","lat":-5.7755,"lon":-35.2079,"timezone":"7","datumn":"在平均海平面下","tidetype":"不正规半日混合潮"},{"id":22066,"cnname":"","enname":"Areia Branca","cncountry":"巴西","encountry":"Brazil","lat":-4.95,"lon":-37.15,"timezone":"-3","datumn":"在平均海平面下","tidetype":"不正规半日混合潮"},{"id":21673,"cnname":"","enname":"Sao Luis","cncountry":"巴西","encountry":"Brazil","lat":-2.516667,"lon":-44.3,"timezone":"-3","datumn":"在平均海平面下","tidetype":"不正规半日混合潮"},{"id":24818,"cnname":"","enname":"Laguna","cncountry":"巴西","encountry":"Brazil","lat":-28.498067,"lon":-48.769217,"timezone":"-3","datumn":"在平均海平面下","tidetype":"不正规半日混合潮"},{"id":27326,"cnname":"","enname":"Sao Sebastiao","cncountry":"巴西","encountry":"Brazil","lat":-23.811467,"lon":-45.396817,"timezone":"-3","datumn":"在平均海平面下","tidetype":"不正规半日混合潮"},{"id":27248,"cnname":"","enname":"Santos","cncountry":"巴西","encountry":"Brazil","lat":-23.992733,"lon":-46.306067,"timezone":"-3","datumn":"在平均海平面下","tidetype":"不正规半日混合潮"},{"id":27141,"cnname":"","enname":"Fortaleza","cncountry":"巴西","encountry":"Brazil","lat":-3.708583,"lon":-38.47855,"timezone":"-3","datumn":"在平均海平面下","tidetype":"不正规半日混合潮"},{"id":28583,"cnname":"","enname":"Macapa","cncountry":"巴西","encountry":"Brazil","lat":-0.062683,"lon":-51.166917,"timezone":"-3","datumn":"在平均海平面下","tidetype":"不正规半日混合潮"},{"id":413010,"cnname":"","enname":"Macae","cncountry":"巴西","encountry":"Brazil","lat":-22.38335,"lon":-41.768383,"timezone":"-3","datumn":"在平均海平面下","tidetype":"不正规半日混合潮"},{"id":18607,"cnname":"","enname":"Nassau","cncountry":"巴哈马","encountry":"Bahamas","lat":25.081033,"lon":-77.3361,"timezone":"-5","datumn":"在平均海平面下","tidetype":"不正规半日混合潮"},{"id":19492,"cnname":"","enname":"Belize City","cncountry":"伯利兹","encountry":"Belize","lat":17.47685,"lon":-88.192183,"timezone":"-6","datumn":"在平均海平面下","tidetype":"不正规半日混合潮"},{"id":21435,"cnname":"","enname":"Botwood","cncountry":"加拿大","encountry":"Canada","lat":49.141167,"lon":-55.3361,"timezone":"-3.5","datumn":"在平均海平面下","tidetype":"不正规半日混合潮"},{"id":21463,"cnname":"","enname":"Campbellton","cncountry":"加拿大","encountry":"Canada","lat":48,"lon":-66.666667,"timezone":"-4","datumn":"在平均海平面下","tidetype":"不正规半日混合潮"},{"id":21509,"cnname":"","enname":"Caraquet","cncountry":"加拿大","encountry":"Canada","lat":47.798667,"lon":-64.929117,"timezone":"-4","datumn":"在平均海平面下","tidetype":"不正规半日混合潮"},{"id":21225,"cnname":"","enname":"Annapolis Royal","cncountry":"加拿大","encountry":"Canada","lat":44.75,"lon":-65.516667,"timezone":"-4","datumn":"在平均海平面下","tidetype":"不正规半日混合潮"},{"id":21401,"cnname":"","enname":"Belledune","cncountry":"加拿大","encountry":"Canada","lat":47.911933,"lon":-65.839133,"timezone":"-4","datumn":"在平均海平面下","tidetype":"不正规半日混合潮"},{"id":21716,"cnname":"","enname":"Chemainus","cncountry":"加拿大","encountry":"Canada","lat":48.925283,"lon":-123.71255,"timezone":"-8","datumn":"在平均海平面下","tidetype":"不正规半日混合潮"},{"id":21809,"cnname":"","enname":"Churchill","cncountry":"加拿大","encountry":"Canada","lat":58.775017,"lon":-94.19735,"timezone":"-6","datumn":"在平均海平面下","tidetype":"不正规半日混合潮"},{"id":21825,"cnname":"","enname":"Come By Chance","cncountry":"加拿大","encountry":"Canada","lat":47.799999,"lon":-54.016667,"timezone":"-3.5","datumn":"在平均海平面下","tidetype":"不正规半日混合潮"},{"id":21886,"cnname":"","enname":"Corner Brook","cncountry":"加拿大","encountry":"Canada","lat":48.960567,"lon":-57.950917,"timezone":"-3.5","datumn":"在平均海平面下","tidetype":"不正规半日混合潮"},{"id":22226,"cnname":"","enname":"Halifax","cncountry":"加拿大","encountry":"Canada","lat":44.650002,"lon":-63.566667,"timezone":"-4","datumn":"在平均海平面下","tidetype":"不正规半日混合潮"},{"id":22340,"cnname":"","enname":"Hantsport","cncountry":"加拿大","encountry":"Canada","lat":45.066666,"lon":-64.166667,"timezone":"-4","datumn":"在平均海平面下","tidetype":"不正规半日混合潮"},{"id":22356,"cnname":"","enname":"Harbour Grace","cncountry":"加拿大","encountry":"Canada","lat":47.672649,"lon":-53.260519,"timezone":"-3.5","datumn":"在平均海平面下","tidetype":"不正规半日混合潮"},{"id":22001,"cnname":"","enname":"Dalhousie","cncountry":"加拿大","encountry":"Canada","lat":48.066666,"lon":-66.366667,"timezone":"-4","datumn":"在平均海平面下","tidetype":"不正规半日混合潮"},{"id":22152,"cnname":"","enname":"Gaspe","cncountry":"加拿大","encountry":"Canada","lat":48.816666,"lon":-64.433333,"timezone":"-5","datumn":"在平均海平面下","tidetype":"不正规半日混合潮"},{"id":16185,"cnname":"","enname":"Natashquan","cncountry":"加拿大","encountry":"Canada","lat":50.183334,"lon":-61.85,"timezone":"-5","datumn":"在平均海平面下","tidetype":"不正规半日混合潮"},{"id":28696,"cnname":"","enname":"Lunenburg","cncountry":"加拿大","encountry":"Canada","lat":44.383335,"lon":-64.316667,"timezone":"-4","datumn":"在平均海平面下","tidetype":"不正规半日混合潮"},{"id":27917,"cnname":"","enname":"Arichat","cncountry":"加拿大","encountry":"Canada","lat":45.509483,"lon":-61.018183,"timezone":"-4","datumn":"在平均海平面下","tidetype":"不正规半日混合潮"},{"id":28202,"cnname":"","enname":"Crofton","cncountry":"加拿大","encountry":"Canada","lat":48.866665,"lon":-123.633333,"timezone":"-8","datumn":"在平均海平面下","tidetype":"不正规半日混合潮"},{"id":28244,"cnname":"","enname":"Digby","cncountry":"加拿大","encountry":"Canada","lat":44.633335,"lon":-65.766667,"timezone":"-4","datumn":"在平均海平面下","tidetype":"不正规半日混合潮"},{"id":24918,"cnname":"","enname":"Stewart","cncountry":"加拿大","encountry":"Canada","lat":55.916668,"lon":-130.016667,"timezone":"-8","datumn":"在平均海平面下","tidetype":"不正规半日混合潮"},{"id":24920,"cnname":"","enname":"Chicoutimi","cncountry":"加拿大","encountry":"Canada","lat":48.4029,"lon":-70.831183,"timezone":"-5","datumn":"在平均海平面下","tidetype":"不正规半日混合潮"},{"id":24967,"cnname":"","enname":"Summerside","cncountry":"加拿大","encountry":"Canada","lat":46.383335,"lon":-63.783333,"timezone":"-4","datumn":"在平均海平面下","tidetype":"不正规半日混合潮"},{"id":24971,"cnname":"","enname":"Les Escoumins","cncountry":"加拿大","encountry":"Canada","lat":48.3866,"lon":-69.380862,"timezone":"-5","datumn":"在平均海平面下","tidetype":"不正规半日混合潮"},{"id":25681,"cnname":"","enname":"Yarmouth","cncountry":"加拿大","encountry":"Canada","lat":43.833332,"lon":-66.116667,"timezone":"0","datumn":"在平均海平面下","tidetype":"不正规半日混合潮"},{"id":25183,"cnname":"","enname":"Tuktoyaktuk","cncountry":"加拿大","encountry":"Canada","lat":69.449997,"lon":-133.033333,"timezone":"-7","datumn":"在平均海平面下","tidetype":"不正规半日混合潮"},{"id":25361,"cnname":"","enname":"Esquimalt","cncountry":"加拿大","encountry":"Canada","lat":48.434033,"lon":-123.427467,"timezone":"-8","datumn":"在平均海平面下","tidetype":"不正规半日混合潮"},{"id":23960,"cnname":"","enname":"Argentia","cncountry":"加拿大","encountry":"Canada","lat":47.29565,"lon":-53.9832,"timezone":"-3.5","datumn":"在平均海平面下","tidetype":"不正规半日混合潮"},{"id":24085,"cnname":"","enname":"Quebec","cncountry":"加拿大","encountry":"Canada","lat":46.827333,"lon":-71.19595,"timezone":"-5","datumn":"在平均海平面下","tidetype":"不正规半日混合潮"},{"id":24220,"cnname":"","enname":"Point Tupper","cncountry":"加拿大","encountry":"Canada","lat":45.616665,"lon":-61.366667,"timezone":"-4","datumn":"在平均海平面下","tidetype":"不正规半日混合潮"},{"id":24413,"cnname":"","enname":"Squamish","cncountry":"加拿大","encountry":"Canada","lat":49.685517,"lon":-123.1745,"timezone":"-8","datumn":"在平均海平面下","tidetype":"不正规半日混合潮"},{"id":23528,"cnname":"","enname":"Paspebiac","cncountry":"加拿大","encountry":"Canada","lat":48.016666,"lon":-65.25,"timezone":"-5","datumn":"在平均海平面下","tidetype":"不正规半日混合潮"},{"id":23585,"cnname":"","enname":"Iona","cncountry":"加拿大","encountry":"Canada","lat":45.963967,"lon":-60.80235,"timezone":"0","datumn":"在平均海平面下","tidetype":"不正规半日混合潮"},{"id":23589,"cnname":"","enname":"Pictou","cncountry":"加拿大","encountry":"Canada","lat":45.683334,"lon":-62.716667,"timezone":"-4","datumn":"在平均海平面下","tidetype":"不正规半日混合潮"},{"id":23648,"cnname":"","enname":"Ladysmith","cncountry":"加拿大","encountry":"Canada","lat":48.977017,"lon":-123.776883,"timezone":"-8","datumn":"在平均海平面下","tidetype":"不正规半日混合潮"},{"id":23699,"cnname":"","enname":"Lockeport","cncountry":"加拿大","encountry":"Canada","lat":43.700001,"lon":-65.116667,"timezone":"-4","datumn":"在平均海平面下","tidetype":"不正规半日混合潮"},{"id":23709,"cnname":"","enname":"Port Alfred","cncountry":"加拿大","encountry":"Canada","lat":48.333332,"lon":-70.866667,"timezone":"-5","datumn":"在平均海平面下","tidetype":"不正规半日混合潮"},{"id":23746,"cnname":"","enname":"Port Alice","cncountry":"加拿大","encountry":"Canada","lat":50.400367,"lon":-127.489633,"timezone":"-9","datumn":"在平均海平面下","tidetype":"不正规半日混合潮"},{"id":23758,"cnname":"","enname":"Port Cartier","cncountry":"加拿大","encountry":"Canada","lat":50.02775,"lon":-66.784767,"timezone":"-5","datumn":"在平均海平面下","tidetype":"不正规半日混合潮"},{"id":22500,"cnname":"","enname":"Holyrood","cncountry":"加拿大","encountry":"Canada","lat":47.405967,"lon":-53.1313,"timezone":"-3.5","datumn":"在平均海平面下","tidetype":"不正规半日混合潮"},{"id":22582,"cnname":"","enname":"Kitimat","cncountry":"加拿大","encountry":"Canada","lat":53.983334,"lon":-128.683333,"timezone":"-8","datumn":"在平均海平面下","tidetype":"不正规半日混合潮"},{"id":22760,"cnname":"","enname":"Matane","cncountry":"加拿大","encountry":"Canada","lat":48.820637,"lon":-67.556968,"timezone":"-5","datumn":"在平均海平面下","tidetype":"不正规半日混合潮"},{"id":22772,"cnname":"","enname":"Meteghan","cncountry":"加拿大","encountry":"Canada","lat":44.233334,"lon":-66.15,"timezone":"-4","datumn":"在平均海平面下","tidetype":"不正规半日混合潮"},{"id":23233,"cnname":"","enname":"Nanaimo","cncountry":"加拿大","encountry":"Canada","lat":49.165183,"lon":-123.924717,"timezone":"-8","datumn":"在平均海平面下","tidetype":"不正规半日混合潮"},{"id":23415,"cnname":"","enname":"Ocean Falls","cncountry":"加拿大","encountry":"Canada","lat":52.349998,"lon":-127.683333,"timezone":"-8","datumn":"在平均海平面下","tidetype":"不正规半日混合潮"},{"id":23445,"cnname":"","enname":"Comox","cncountry":"加拿大","encountry":"Canada","lat":49.659933,"lon":-124.93695,"timezone":"-8","datumn":"在平均海平面下","tidetype":"不正规半日混合潮"},{"id":28812,"cnname":"","enname":"Parrsboro","cncountry":"加拿大","encountry":"Canada","lat":45.3901,"lon":-64.319917,"timezone":"-4","datumn":"在平均海平面下","tidetype":"不正规半日混合潮"},{"id":29108,"cnname":"","enname":"Valleyfield","cncountry":"加拿大","encountry":"Canada","lat":45.216667,"lon":-74.093333,"timezone":"-3.5","datumn":"在平均海平面下","tidetype":"不正规半日混合潮"},{"id":423666,"cnname":"","enname":"Port Edward","cncountry":"加拿大","encountry":"Canada","lat":54.232667,"lon":-130.300133,"timezone":"-8","datumn":"在平均海平面下","tidetype":"不正规半日混合潮"},{"id":455483,"cnname":"","enname":"Cambridge Bay","cncountry":"加拿大","encountry":"Canada","lat":69.1077,"lon":-105.060683,"timezone":"-7","datumn":"在平均海平面下","tidetype":"不正规半日混合潮"},{"id":265863,"cnname":"","enname":"Tobermory","cncountry":"加拿大","encountry":"Canada","lat":45.266666,"lon":-81.666667,"timezone":"0","datumn":"在平均海平面下","tidetype":"不正规半日混合潮"},{"id":259279,"cnname":"","enname":"Port Moody","cncountry":"加拿大","encountry":"Canada","lat":49.288917,"lon":-122.864633,"timezone":"-8","datumn":"在平均海平面下","tidetype":"不正规半日混合潮"},{"id":259281,"cnname":"","enname":"Sechelt","cncountry":"加拿大","encountry":"Canada","lat":49.466667,"lon":-123.75,"timezone":"-8","datumn":"在平均海平面下","tidetype":"不正规半日混合潮"},{"id":259282,"cnname":"","enname":"Sidney","cncountry":"加拿大","encountry":"Canada","lat":48.642467,"lon":-123.395617,"timezone":"-8","datumn":"在平均海平面下","tidetype":"不正规半日混合潮"},{"id":259343,"cnname":"","enname":"Cape Tormentine","cncountry":"加拿大","encountry":"Canada","lat":46.134483,"lon":-63.77405,"timezone":"-4","datumn":"在平均海平面下","tidetype":"不正规半日混合潮"},{"id":259430,"cnname":"","enname":"Deception Bay","cncountry":"加拿大","encountry":"Canada","lat":62.14625,"lon":-74.689933,"timezone":"-5","datumn":"在平均海平面下","tidetype":"不正规半日混合潮"},{"id":221819,"cnname":"","enname":"Carmanville","cncountry":"加拿大","encountry":"Canada","lat":49.400002,"lon":-54.266667,"timezone":"-3.5","datumn":"在平均海平面下","tidetype":"不正规半日混合潮"},{"id":221514,"cnname":"","enname":"Prince Rupert","cncountry":"加拿大","encountry":"Canada","lat":54.316666,"lon":-130.333333,"timezone":"-8","datumn":"在平均海平面下","tidetype":"不正规半日混合潮"},{"id":219985,"cnname":"","enname":"Bathurst","cncountry":"加拿大","encountry":"Canada","lat":47.616665,"lon":-65.65,"timezone":"-4","datumn":"在平均海平面下","tidetype":"不正规半日混合潮"},{"id":219990,"cnname":"","enname":"Charlottetown","cncountry":"加拿大","encountry":"Canada","lat":46.228683,"lon":-63.117683,"timezone":"-4","datumn":"在平均海平面下","tidetype":"不正规半日混合潮"},{"id":219992,"cnname":"","enname":"North Sydney","cncountry":"加拿大","encountry":"Canada","lat":46.266666,"lon":-60.216667,"timezone":"-4","datumn":"在平均海平面下","tidetype":"不正规半日混合潮"},{"id":219996,"cnname":"","enname":"Bella Coola","cncountry":"加拿大","encountry":"Canada","lat":52.383335,"lon":-126.766667,"timezone":"-8","datumn":"在平均海平面下","tidetype":"不正规半日混合潮"},{"id":219999,"cnname":"","enname":"Shelburne","cncountry":"加拿大","encountry":"Canada","lat":43.75,"lon":-65.316667,"timezone":"-4","datumn":"在平均海平面下","tidetype":"不正规半日混合潮"},{"id":220013,"cnname":"","enname":"Cap-aux-Meules","cncountry":"加拿大","encountry":"Canada","lat":47.379417,"lon":-61.8549,"timezone":"-4","datumn":"在平均海平面下","tidetype":"不正规半日混合潮"},{"id":220018,"cnname":"","enname":"Port aux Basques","cncountry":"加拿大","encountry":"Canada","lat":47.566666,"lon":-59.116667,"timezone":"-3.5","datumn":"在平均海平面下","tidetype":"不正规半日混合潮"},{"id":220023,"cnname":"","enname":"Chatham","cncountry":"加拿大","encountry":"Canada","lat":47.033333,"lon":-65.466667,"timezone":"-5","datumn":"在平均海平面下","tidetype":"正规半日潮"},{"id":220026,"cnname":"","enname":"Bridgewater","cncountry":"加拿大","encountry":"Canada","lat":44.370717,"lon":-64.504167,"timezone":"-4","datumn":"在平均海平面下","tidetype":"不正规半日混合潮"},{"id":220028,"cnname":"","enname":"Sheet Harbour","cncountry":"加拿大","encountry":"Canada","lat":44.90365,"lon":-62.50345,"timezone":"-4","datumn":"在平均海平面下","tidetype":"不正规半日混合潮"},{"id":247479,"cnname":"","enname":"Souris","cncountry":"加拿大","encountry":"Canada","lat":46.34835,"lon":-62.254433,"timezone":"-4","datumn":"在平均海平面下","tidetype":"不正规半日混合潮"},{"id":252288,"cnname":"","enname":"Bay Bulls","cncountry":"加拿大","encountry":"Canada","lat":47.316666,"lon":-52.810999,"timezone":"-3.5","datumn":"在平均海平面下","tidetype":"不正规半日混合潮"},{"id":28605,"cnname":"","enname":"Pointe-Noire","cncountry":"刚果（布）","encountry":"Congo","lat":-4.782167,"lon":11.828217,"timezone":"1","datumn":"在平均海平面下","tidetype":"不正规半日混合潮"},{"id":13321,"cnname":"","enname":"Abidjan","cncountry":"科特迪瓦","encountry":"C?te d'Ivoire","lat":5.24655,"lon":-4.998783,"timezone":"0","datumn":"在平均海平面下","tidetype":"不正规半日混合潮"},{"id":26965,"cnname":"","enname":"Isla de Pascua","cncountry":"智利","encountry":"Chile","lat":-27.15,"lon":-109.45,"timezone":"-6","datumn":"在平均海平面下","tidetype":"正规半日潮"},{"id":21100,"cnname":"","enname":"Douala","cncountry":"喀麦隆","encountry":"Cameroon","lat":4.050083,"lon":9.687233,"timezone":"1","datumn":"在平均海平面下","tidetype":"不正规半日混合潮"},{"id":8000001,"cnname":"丹东","enname":"DANDONG","cncountry":"中国","encountry":"China","lat":40.116667,"lon":124.4,"timezone":"8","datumn":"在平均海面下150cm","tidetype":"不正规半日混合潮"},{"id":8000002,"cnname":"丹东新港","enname":"DANDONGXINGANG","cncountry":"中国","encountry":"China","lat":39.833333,"lon":124.15,"timezone":"8","datumn":"在平均海面下354cm","tidetype":"不正规半日混合潮"},{"id":8000003,"cnname":"石山子","enname":"SHISHANZI","cncountry":"中国","encountry":"China","lat":39.966667,"lon":123.666667,"timezone":"8","datumn":"在平均海面下200cm","tidetype":"不正规半日混合潮"},{"id":8000004,"cnname":"大鹿岛","enname":"DALUDAO","cncountry":"中国","encountry":"China","lat":39.75,"lon":123.75,"timezone":"8","datumn":"在平均海面下332cm","tidetype":"不正规半日混合潮"},{"id":8000005,"cnname":"小长山岛","enname":"XIAOCHANGSHANDAO","cncountry":"中国","encountry":"China","lat":39.233333,"lon":122.666667,"timezone":"8","datumn":"在平均海面下232cm","tidetype":"不正规半日混合潮"},{"id":8000006,"cnname":"大窑湾(南大圈)","enname":"DAYAOWAN NANDAQUAN","cncountry":"中国","encountry":"China","lat":39.016667,"lon":121.9,"timezone":"8","datumn":"在平均海面下190cm","tidetype":"不正规半日混合潮"},{"id":8000007,"cnname":"大连(老虎滩)","enname":"DALIAN(LAOHUTAN)","cncountry":"中国","encountry":"China","lat":38.866667,"lon":121.683333,"timezone":"8","datumn":"在平均海面下163cm","tidetype":"不正规半日混合潮"},{"id":8000008,"cnname":"旅顺新港","enname":"LUSHUNXINGANG","cncountry":"中国","encountry":"China","lat":38.8,"lon":121.133333,"timezone":"8","datumn":"在平均海面下145cm","tidetype":"不正规半日混合潮"},{"id":8000009,"cnname":"金县","enname":"JINXIAN","cncountry":"中国","encountry":"China","lat":39.05,"lon":121.533333,"timezone":"8","datumn":"在平均海面下150cm","tidetype":"不正规半日混合潮"},{"id":8000010,"cnname":"葫芦套","enname":"HULUTAO","cncountry":"中国","encountry":"China","lat":39.266667,"lon":121.6,"timezone":"8","datumn":"在平均海面下130cm","tidetype":"不正规半日混合潮"},{"id":8000011,"cnname":"长兴岛","enname":"CHANGXINGDAO","cncountry":"中国","encountry":"China","lat":39.65,"lon":121.466667,"timezone":"8","datumn":"在平均海面下101cm","tidetype":"不正规半日混合潮"},{"id":8000012,"cnname":"鲅鱼圈","enname":"BAYUQUAN","cncountry":"中国","encountry":"China","lat":40.3,"lon":122.083333,"timezone":"8","datumn":"在平均海面下194cm","tidetype":"不正规半日混合潮"},{"id":8000013,"cnname":"营口","enname":"YINGKOU","cncountry":"中国","encountry":"China","lat":40.633333,"lon":122.15,"timezone":"8","datumn":"在平均海面下200cm","tidetype":"不正规半日混合潮"},{"id":8000014,"cnname":"老北河口","enname":"LAOBEIHEKOU","cncountry":"中国","encountry":"China","lat":40.966667,"lon":121.833333,"timezone":"8","datumn":"在平均海面下209cm","tidetype":"不正规半日混合潮"},{"id":8000015,"cnname":"锦州港(笔架山)","enname":"JINZHOUGANG(BIJIASHAN)","cncountry":"中国","encountry":"China","lat":40.8,"lon":121.066667,"timezone":"8","datumn":"在平均海面下160cm","tidetype":"不正规半日混合潮"},{"id":8000016,"cnname":"菊花岛","enname":"JUHUADAO","cncountry":"中国","encountry":"China","lat":40.483333,"lon":120.833333,"timezone":"8","datumn":"在平均海面下142cm","tidetype":"不正规半日混合潮"},{"id":8000017,"cnname":"团山角","enname":"TUANSHANJIAO","cncountry":"中国","encountry":"China","lat":40.233333,"lon":120.466667,"timezone":"8","datumn":"在平均海面下76cm","tidetype":"不正规半日混合潮"},{"id":8000018,"cnname":"芷锚湾","enname":"ZHIMAOWAN","cncountry":"中国","encountry":"China","lat":40.016667,"lon":119.916667,"timezone":"8","datumn":"在平均海面下75cm","tidetype":"正规日潮"},{"id":8000019,"cnname":"山海关","enname":"SHANHAIGUAN","cncountry":"中国","encountry":"China","lat":39.983333,"lon":119.816667,"timezone":"8","datumn":"在平均海面下104cm","tidetype":"正规日潮"},{"id":8000020,"cnname":"秦皇岛","enname":"QINHUANGDAO","cncountry":"中国","encountry":"China","lat":39.916667,"lon":119.616667,"timezone":"8","datumn":"在平均海面下91cm","tidetype":"正规日潮"},{"id":8000021,"cnname":"七里海(新开口)","enname":"QILIHAI(XINKAIKOU)","cncountry":"中国","encountry":"China","lat":39.583333,"lon":119.283333,"timezone":"8","datumn":"在平均海面下130cm","tidetype":"正规日潮"},{"id":8000022,"cnname":"京唐港","enname":"JINGTANGGANG","cncountry":"中国","encountry":"China","lat":39.216667,"lon":119.016667,"timezone":"8","datumn":"在平均海面下148cm","tidetype":"不正规半日混合潮"},{"id":8000023,"cnname":"曹妃甸","enname":"CAOFEIDIAN","cncountry":"中国","encountry":"China","lat":38.9,"lon":118.5,"timezone":"8","datumn":"在平均海面下178cm","tidetype":"不正规半日混合潮"},{"id":8000024,"cnname":"塘沽","enname":"TANGGU","cncountry":"中国","encountry":"China","lat":38.983333,"lon":117.783333,"timezone":"8","datumn":"在平均海面下241cm","tidetype":"不正规半日混合潮"},{"id":8000025,"cnname":"岐口","enname":"QIKOU","cncountry":"中国","encountry":"China","lat":38.6,"lon":117.516667,"timezone":"8","datumn":"在平均海面下253cm","tidetype":"不正规半日混合潮"},{"id":8000026,"cnname":"埕口外海","enname":"CHENGKOUWAIHAI","cncountry":"中国","encountry":"China","lat":38.45,"lon":118.433333,"timezone":"8","datumn":"在平均海面下201cm","tidetype":"不正规半日混合潮"},{"id":8000027,"cnname":"黄骅港(一期煤码头)","enname":"HUANGHUAGANG(YIQIMEIMATOU)","cncountry":"中国","encountry":"China","lat":38.316667,"lon":117.883333,"timezone":"8","datumn":"在平均海面下240cm","tidetype":"不正规半日混合潮"},{"id":8000028,"cnname":"东风港","enname":"DONGFENGGANG","cncountry":"中国","encountry":"China","lat":38.25,"lon":118.166667,"timezone":"8","datumn":"在平均海面下166cm","tidetype":"不正规半日混合潮"},{"id":8000029,"cnname":"湾湾沟口","enname":"WANWANGOUKOU","cncountry":"中国","encountry":"China","lat":38.183333,"lon":118.45,"timezone":"8","datumn":"在平均海面下130cm","tidetype":"不正规半日混合潮"},{"id":8000030,"cnname":"东营港","enname":"DONGYINGGANG","cncountry":"中国","encountry":"China","lat":38.1,"lon":118.966667,"timezone":"8","datumn":"在平均海面下100cm","tidetype":"正规日潮"},{"id":8000031,"cnname":"潍坊港","enname":"WEIFANGGANG","cncountry":"中国","encountry":"China","lat":37.233333,"lon":119.183333,"timezone":"8","datumn":"在平均海面下120cm","tidetype":"不正规半日混合潮"},{"id":8000032,"cnname":"莱州港","enname":"LAIZHOUGANG","cncountry":"中国","encountry":"China","lat":37.416667,"lon":119.933333,"timezone":"8","datumn":"在平均海面下94cm","tidetype":"不正规半日混合潮"},{"id":8000033,"cnname":"龙口","enname":"LONGKOU","cncountry":"中国","encountry":"China","lat":37.65,"lon":120.316667,"timezone":"8","datumn":"在平均海面下70cm","tidetype":"不正规半日混合潮"},{"id":8000034,"cnname":"蓬莱","enname":"PENGLAI","cncountry":"中国","encountry":"China","lat":37.816667,"lon":120.733333,"timezone":"8","datumn":"在平均海面下95cm","tidetype":"不正规半日混合潮"},{"id":8000035,"cnname":"南长山岛","enname":"NANCHANGSHANDAO","cncountry":"中国","encountry":"China","lat":37.916667,"lon":120.7,"timezone":"8","datumn":"在平均海面下92cm","tidetype":"不正规半日混合潮"},{"id":8000036,"cnname":"砣矶岛","enname":"TUOJIDAO","cncountry":"中国","encountry":"China","lat":38.166667,"lon":120.75,"timezone":"8","datumn":"在平均海面下89cm","tidetype":"不正规半日混合潮"},{"id":8000037,"cnname":"北隍城岛","enname":"BEIHUANGCHENGDAO","cncountry":"中国","encountry":"China","lat":38.4,"lon":120.916667,"timezone":"8","datumn":"在平均海面下100cm","tidetype":"不正规半日混合潮"},{"id":8000038,"cnname":"烟台","enname":"YANTAI","cncountry":"中国","encountry":"China","lat":37.55,"lon":121.383333,"timezone":"8","datumn":"在平均海面下147cm","tidetype":"不正规半日混合潮"},{"id":8000039,"cnname":"威海","enname":"WEIHAI","cncountry":"中国","encountry":"China","lat":37.516667,"lon":122.133333,"timezone":"8","datumn":"在平均海面下130cm","tidetype":"不正规半日混合潮"},{"id":8000040,"cnname":"成山角","enname":"CHENGSHANJIAO","cncountry":"中国","encountry":"China","lat":37.383333,"lon":122.683333,"timezone":"8","datumn":"在平均海面下94cm","tidetype":"正规日潮"},{"id":8000041,"cnname":"石岛","enname":"SHIDAO","cncountry":"中国","encountry":"China","lat":36.883333,"lon":122.433333,"timezone":"8","datumn":"在平均海面下166cm","tidetype":"不正规半日混合潮"},{"id":8000042,"cnname":"张家埠","enname":"ZHANGJIABU","cncountry":"中国","encountry":"China","lat":37.016667,"lon":122.166667,"timezone":"8","datumn":"在平均海面下220cm","tidetype":"不正规半日混合潮"},{"id":8000043,"cnname":"乳山口","enname":"RUSHANKOU","cncountry":"中国","encountry":"China","lat":36.8,"lon":121.483333,"timezone":"8","datumn":"在平均海面下220cm","tidetype":"不正规半日混合潮"},{"id":8000044,"cnname":"千里岩","enname":"QIANLIYAN","cncountry":"中国","encountry":"China","lat":36.266667,"lon":121.383333,"timezone":"8","datumn":"在平均海面下183cm","tidetype":"不正规半日混合潮"},{"id":8000045,"cnname":"女岛港","enname":"NUDAOGANG","cncountry":"中国","encountry":"China","lat":36.366667,"lon":120.866667,"timezone":"8","datumn":"在平均海面下220cm","tidetype":"不正规半日混合潮"},{"id":8000046,"cnname":"青岛","enname":"QINGDAO","cncountry":"中国","encountry":"China","lat":36.083333,"lon":120.3,"timezone":"8","datumn":"在平均海面下239cm","tidetype":"不正规半日混合潮"},{"id":8000047,"cnname":"黄岛","enname":"HUANGDAO","cncountry":"中国","encountry":"China","lat":36.083333,"lon":120.316667,"timezone":"8","datumn":"在平均海面下231cm","tidetype":"不正规半日混合潮"},{"id":8000048,"cnname":"董家口","enname":"DONGJIAKOU","cncountry":"中国","encountry":"China","lat":35.6,"lon":119.766667,"timezone":"8","datumn":"在平均海面下288cm","tidetype":"不正规半日混合潮"},{"id":8000049,"cnname":"日照港(石臼所)","enname":"RIZHAOGANG(SHIJIUSUO)","cncountry":"中国","encountry":"China","lat":35.366667,"lon":119.55,"timezone":"8","datumn":"在平均海面下270cm","tidetype":"不正规半日混合潮"},{"id":8000050,"cnname":"岚山港","enname":"LANSHANGANG","cncountry":"中国","encountry":"China","lat":35.083333,"lon":119.366667,"timezone":"8","datumn":"在平均海面下310cm","tidetype":"不正规半日混合潮"},{"id":8000051,"cnname":"连云港","enname":"LIANYUNGANG","cncountry":"中国","encountry":"China","lat":34.75,"lon":119.416667,"timezone":"8","datumn":"在平均海面下290cm","tidetype":"不正规半日混合潮"},{"id":8000052,"cnname":"燕尾","enname":"YANWEI","cncountry":"中国","encountry":"China","lat":34.483333,"lon":119.783333,"timezone":"8","datumn":"在平均海面下278cm","tidetype":"不正规半日混合潮"},{"id":8000053,"cnname":"滨海港","enname":"BINHAIGANG","cncountry":"中国","encountry":"China","lat":34.266667,"lon":120.266667,"timezone":"8","datumn":"在平均海面下165cm","tidetype":"不正规半日混合潮"},{"id":8000054,"cnname":"射阳河口","enname":"SHEYANGHEKOU","cncountry":"中国","encountry":"China","lat":33.816667,"lon":120.5,"timezone":"8","datumn":"在平均海面下171cm","tidetype":"不正规半日混合潮"},{"id":8000055,"cnname":"新洋港","enname":"XINYANGGANG","cncountry":"中国","encountry":"China","lat":33.616667,"lon":120.466667,"timezone":"8","datumn":"在平均海面下200cm","tidetype":"不正规半日混合潮"},{"id":8000056,"cnname":"大丰港","enname":"DAFENGGANG","cncountry":"中国","encountry":"China","lat":33.183333,"lon":120.716667,"timezone":"8","datumn":"在平均海面下300cm","tidetype":"不正规半日混合潮"},{"id":8000057,"cnname":"弶港","enname":"JIANGGANG","cncountry":"中国","encountry":"China","lat":32.733333,"lon":120.866667,"timezone":"8","datumn":"在平均海面下301cm","tidetype":"不正规半日混合潮"},{"id":8000058,"cnname":"洋口港","enname":"YANGKOUGANG","cncountry":"中国","encountry":"China","lat":32.5,"lon":121.416667,"timezone":"8","datumn":"在平均海面下406cm","tidetype":"不正规半日混合潮"},{"id":8000059,"cnname":"吕四","enname":"LUSI","cncountry":"中国","encountry":"China","lat":32.133333,"lon":121.616667,"timezone":"8","datumn":"在平均海面下310cm","tidetype":"不正规半日混合潮"},{"id":8000060,"cnname":"天生港","enname":"TIANSHENGGANG","cncountry":"中国","encountry":"China","lat":32.033333,"lon":120.75,"timezone":"8","datumn":"在平均海面下150cm","tidetype":"不正规半日混合潮"},{"id":8000061,"cnname":"佘山","enname":"SHESHAN","cncountry":"中国","encountry":"China","lat":31.416667,"lon":122.233333,"timezone":"8","datumn":"在平均海面下229cm","tidetype":"不正规半日混合潮"},{"id":8000062,"cnname":"崇明(南堡镇)","enname":"CHONGMING(NANBUZHEN)","cncountry":"中国","encountry":"China","lat":31.533333,"lon":121.633333,"timezone":"8","datumn":"在平均海面下214cm","tidetype":"不正规半日混合潮"},{"id":8000063,"cnname":"中浚","enname":"ZHONGJUN","cncountry":"中国","encountry":"China","lat":31.116667,"lon":121.9,"timezone":"8","datumn":"在平均海面下225cm","tidetype":"不正规半日混合潮"},{"id":8000064,"cnname":"高桥","enname":"GAOQIAO","cncountry":"中国","encountry":"China","lat":31.35,"lon":121.566667,"timezone":"8","datumn":"在平均海面下197cm","tidetype":"不正规半日混合潮"},{"id":8000065,"cnname":"吴淞","enname":"WUSONG","cncountry":"中国","encountry":"China","lat":31.4,"lon":121.5,"timezone":"8","datumn":"在平均海面下202cm","tidetype":"不正规半日混合潮"},{"id":8000066,"cnname":"黄浦公园","enname":"HUANGPUGONGYUAN","cncountry":"中国","encountry":"China","lat":31.233333,"lon":121.483333,"timezone":"8","datumn":"在平均海面下154cm","tidetype":"不正规半日混合潮"},{"id":8000067,"cnname":"芦潮港(南汇嘴)","enname":"LUCAOGANG(NANHUIZUI)","cncountry":"中国","encountry":"China","lat":30.833333,"lon":121.833333,"timezone":"8","datumn":"在平均海面下267cm","tidetype":"不正规半日混合潮"},{"id":8000068,"cnname":"金山嘴","enname":"JINSHANZUI","cncountry":"中国","encountry":"China","lat":30.75,"lon":121.366667,"timezone":"8","datumn":"在平均海面下307cm","tidetype":"不正规半日混合潮"},{"id":8000069,"cnname":"绿华山","enname":"LUHUASHAN","cncountry":"中国","encountry":"China","lat":30.816667,"lon":122.6,"timezone":"8","datumn":"在平均海面下263cm","tidetype":"不正规半日混合潮"},{"id":8000070,"cnname":"大戢山","enname":"DAJISHAN","cncountry":"中国","encountry":"China","lat":30.816667,"lon":122.166667,"timezone":"8","datumn":"在平均海面下254cm","tidetype":"不正规半日混合潮"},{"id":8000071,"cnname":"嵊山","enname":"SHENGSHAN","cncountry":"中国","encountry":"China","lat":30.716667,"lon":122.8,"timezone":"8","datumn":"在平均海面下240cm","tidetype":"不正规半日混合潮"},{"id":8000072,"cnname":"乍浦","enname":"ZHAPU","cncountry":"中国","encountry":"China","lat":30.616667,"lon":121.083333,"timezone":"8","datumn":"在平均海面下350cm","tidetype":"不正规半日混合潮"},{"id":8000073,"cnname":"澉浦","enname":"GANPU","cncountry":"中国","encountry":"China","lat":30.4,"lon":120.9,"timezone":"8","datumn":"在平均海面下414cm","tidetype":"不正规半日混合潮"},{"id":8000074,"cnname":"滩浒","enname":"TANHU","cncountry":"中国","encountry":"China","lat":30.616667,"lon":121.616667,"timezone":"8","datumn":"在平均海面下270cm","tidetype":"不正规半日混合潮"},{"id":8000075,"cnname":"海黄山","enname":"HAIHUANGSHAN","cncountry":"中国","encountry":"China","lat":30.216667,"lon":121.5,"timezone":"8","datumn":"在平均海面下214cm","tidetype":"不正规半日混合潮"},{"id":8000076,"cnname":"长涂","enname":"CHANGTU","cncountry":"中国","encountry":"China","lat":30.25,"lon":122.3,"timezone":"8","datumn":"在平均海面下238cm","tidetype":"不正规半日混合潮"},{"id":8000077,"cnname":"岱山","enname":"DAISHAN","cncountry":"中国","encountry":"China","lat":30.233333,"lon":122.183333,"timezone":"8","datumn":"在平均海面下190cm","tidetype":"不正规半日混合潮"},{"id":8000078,"cnname":"西码头","enname":"XIMATOU","cncountry":"中国","encountry":"China","lat":30.116667,"lon":122.133333,"timezone":"8","datumn":"在平均海面下210cm","tidetype":"不正规半日混合潮"},{"id":8000079,"cnname":"沈家门","enname":"SHENJIAMEN","cncountry":"中国","encountry":"China","lat":29.933333,"lon":122.3,"timezone":"8","datumn":"在平均海面下252cm","tidetype":"不正规半日混合潮"},{"id":8000080,"cnname":"定海","enname":"DINGHAI","cncountry":"中国","encountry":"China","lat":30,"lon":122.066667,"timezone":"8","datumn":"在平均海面下226cm","tidetype":"不正规半日混合潮"},{"id":8000081,"cnname":"沥港","enname":"LIGANG","cncountry":"中国","encountry":"China","lat":30.066667,"lon":121.85,"timezone":"8","datumn":"在平均海面下205cm","tidetype":"不正规半日混合潮"},{"id":8000082,"cnname":"宁波","enname":"NINGBO","cncountry":"中国","encountry":"China","lat":29.883333,"lon":121.55,"timezone":"8","datumn":"在平均海面下180cm","tidetype":"不正规半日混合潮"},{"id":8000083,"cnname":"镇海","enname":"ZHENHAI","cncountry":"中国","encountry":"China","lat":29.983333,"lon":121.733333,"timezone":"8","datumn":"在平均海面下207cm","tidetype":"不正规半日混合潮"},{"id":8000084,"cnname":"北仑港","enname":"BEILUNGANG","cncountry":"中国","encountry":"China","lat":29.933333,"lon":121.85,"timezone":"8","datumn":"在平均海面下176cm","tidetype":"不正规半日混合潮"},{"id":8000085,"cnname":"崎头角","enname":"QITOUJIAO","cncountry":"中国","encountry":"China","lat":29.9,"lon":122.116667,"timezone":"8","datumn":"在平均海面下240cm","tidetype":"不正规半日混合潮"},{"id":8000086,"cnname":"梅山","enname":"MEISHAN","cncountry":"中国","encountry":"China","lat":29.816667,"lon":122.016667,"timezone":"8","datumn":"在平均海面下234cm","tidetype":"不正规半日混合潮"},{"id":8000087,"cnname":"西泽","enname":"XIZE","cncountry":"中国","encountry":"China","lat":29.616667,"lon":121.833333,"timezone":"8","datumn":"在平均海面下269cm","tidetype":"不正规半日混合潮"},{"id":8000088,"cnname":"石浦","enname":"SHIPU","cncountry":"中国","encountry":"China","lat":29.2,"lon":121.95,"timezone":"8","datumn":"在平均海面下307cm","tidetype":"不正规半日混合潮"},{"id":8000089,"cnname":"旗门港","enname":"QIMEN〖KG*2〗GANG","cncountry":"中国","encountry":"China","lat":29.15,"lon":121.466667,"timezone":"8","datumn":"在平均海面下379cm","tidetype":"不正规半日混合潮"},{"id":8000090,"cnname":"健跳","enname":"JIANTIAO","cncountry":"中国","encountry":"China","lat":29.033333,"lon":121.6,"timezone":"8","datumn":"在平均海面下350cm","tidetype":"不正规半日混合潮"},{"id":8000091,"cnname":"鱼山","enname":"YUSHAN","cncountry":"中国","encountry":"China","lat":28.883333,"lon":122.266667,"timezone":"8","datumn":"在平均海面下251cm","tidetype":"不正规半日混合潮"},{"id":8000092,"cnname":"下大陈","enname":"XIADACHEN","cncountry":"中国","encountry":"China","lat":28.45,"lon":121.9,"timezone":"8","datumn":"在平均海面下299cm","tidetype":"不正规半日混合潮"},{"id":8000093,"cnname":"海门","enname":"HAIMEN","cncountry":"中国","encountry":"China","lat":28.683333,"lon":121.45,"timezone":"8","datumn":"在平均海面下290cm","tidetype":"不正规半日混合潮"},{"id":8000094,"cnname":"海门港(白沙)","enname":"HAIMEN〖KG*2〗GANG(BAISHA)","cncountry":"中国","encountry":"China","lat":28.7,"lon":121.633333,"timezone":"8","datumn":"在平均海面下331cm","tidetype":"不正规半日混合潮"},{"id":8000095,"cnname":"东门村","enname":"DONGMENCUN","cncountry":"中国","encountry":"China","lat":28.333333,"lon":121.216667,"timezone":"8","datumn":"在平均海面下430cm","tidetype":"不正规半日混合潮"},{"id":8000096,"cnname":"坎门","enname":"KANMEN","cncountry":"中国","encountry":"China","lat":28.083333,"lon":121.283333,"timezone":"8","datumn":"在平均海面下330cm","tidetype":"不正规半日混合潮"},{"id":8000097,"cnname":"大门岛(黄大岙)","enname":"DAMENDAO(HUANGDAAO)","cncountry":"中国","encountry":"China","lat":27.95,"lon":121.033333,"timezone":"8","datumn":"在平均海面下363cm","tidetype":"不正规半日混合潮"},{"id":8000098,"cnname":"温州","enname":"WENZHOU","cncountry":"中国","encountry":"China","lat":28.033333,"lon":120.65,"timezone":"8","datumn":"在平均海面下296cm","tidetype":"不正规半日混合潮"},{"id":8000099,"cnname":"瑞安","enname":"RUIAN","cncountry":"中国","encountry":"China","lat":27.616667,"lon":121.183333,"timezone":"8","datumn":"在平均海面下310cm","tidetype":"不正规半日混合潮"},{"id":8000100,"cnname":"南麂山","enname":"NANJISHAN","cncountry":"中国","encountry":"China","lat":27.45,"lon":121.05,"timezone":"8","datumn":"在平均海面下315cm","tidetype":"不正规半日混合潮"},{"id":8000101,"cnname":"三沙","enname":"SANSHA","cncountry":"中国","encountry":"China","lat":26.916667,"lon":120.216667,"timezone":"8","datumn":"在平均海面下349cm","tidetype":"不正规半日混合潮"},{"id":8000102,"cnname":"赛岐","enname":"SAIQI","cncountry":"中国","encountry":"China","lat":26.966667,"lon":119.666667,"timezone":"8","datumn":"在平均海面下417cm","tidetype":"不正规半日混合潮"},{"id":8000103,"cnname":"帮门","enname":"BANGMEN","cncountry":"中国","encountry":"China","lat":26.75,"lon":119.583333,"timezone":"8","datumn":"在平均海面下482cm","tidetype":"不正规半日混合潮"},{"id":8000104,"cnname":"罗源迹头","enname":"LUOYUANJITOU","cncountry":"中国","encountry":"China","lat":26.466667,"lon":119.683333,"timezone":"8","datumn":"在平均海面下406cm","tidetype":"不正规半日混合潮"},{"id":8000105,"cnname":"黄岐","enname":"HUANGQI","cncountry":"中国","encountry":"China","lat":26.333333,"lon":119.883333,"timezone":"8","datumn":"在平均海面下369cm","tidetype":"不正规半日混合潮"},{"id":8000106,"cnname":"马尾","enname":"MAWEI","cncountry":"中国","encountry":"China","lat":25.966667,"lon":119.466667,"timezone":"8","datumn":"在平均海面下296cm","tidetype":"不正规半日混合潮"},{"id":8000107,"cnname":"福清湾(松下港)","enname":"FUQINGWAN(SONGXIAGANG)","cncountry":"中国","encountry":"China","lat":25.683333,"lon":119.583333,"timezone":"8","datumn":"在平均海面下394cm","tidetype":"不正规半日混合潮"},{"id":8000108,"cnname":"竹屿","enname":"ZHUYU","cncountry":"中国","encountry":"China","lat":25.516667,"lon":119.733333,"timezone":"8","datumn":"在平均海面下391cm","tidetype":"不正规半日混合潮"},{"id":8000109,"cnname":"郎官","enname":"LANGGUAN","cncountry":"中国","encountry":"China","lat":25.566667,"lon":119.3,"timezone":"8","datumn":"在平均海面下427cm","tidetype":"不正规半日混合潮"},{"id":8000110,"cnname":"闽江口(川石)","enname":"MINJIANGKOU(CHUANSHI)","cncountry":"中国","encountry":"China","lat":26.133333,"lon":119.666667,"timezone":"8","datumn":"在平均海面下353cm","tidetype":"不正规半日混合潮"},{"id":8000111,"cnname":"闽江口(琯头)","enname":"MINJIANGKOU(GUANTOU)","cncountry":"中国","encountry":"China","lat":26.133333,"lon":119.566667,"timezone":"8","datumn":"在平均海面下325cm","tidetype":"不正规半日混合潮"},{"id":8000112,"cnname":"平潭","enname":"PINGTAN","cncountry":"中国","encountry":"China","lat":25.466667,"lon":119.833333,"timezone":"8","datumn":"在平均海面下403cm","tidetype":"不正规半日混合潮"},{"id":8000113,"cnname":"三江口","enname":"SANJIANGKOU","cncountry":"中国","encountry":"China","lat":25.416667,"lon":119.116667,"timezone":"8","datumn":"在平均海面下427cm","tidetype":"不正规半日混合潮"},{"id":8000114,"cnname":"秀屿","enname":"XIUYU","cncountry":"中国","encountry":"China","lat":25.2,"lon":118.966667,"timezone":"8","datumn":"在平均海面下407cm","tidetype":"不正规半日混合潮"},{"id":8000115,"cnname":"梯吴","enname":"TIWU","cncountry":"中国","encountry":"China","lat":25.133333,"lon":119.033333,"timezone":"8","datumn":"在平均海面下410cm","tidetype":"不正规半日混合潮"},{"id":8000116,"cnname":"崇武","enname":"CHONGWU","cncountry":"中国","encountry":"China","lat":24.883333,"lon":118.95,"timezone":"8","datumn":"在平均海面下351cm","tidetype":"不正规半日混合潮"},{"id":8000117,"cnname":"后渚","enname":"HOUZHU","cncountry":"中国","encountry":"China","lat":24.9,"lon":118.666667,"timezone":"8","datumn":"在平均海面下360cm","tidetype":"不正规半日混合潮"},{"id":8000118,"cnname":"泉州(石湖)","enname":"QUANZHOU(SHIHU)","cncountry":"中国","encountry":"China","lat":24.816667,"lon":118.7,"timezone":"8","datumn":"在平均海面下366cm","tidetype":"不正规半日混合潮"},{"id":8000119,"cnname":"深沪港","enname":"SHENHUGANG","cncountry":"中国","encountry":"China","lat":24.633333,"lon":118.666667,"timezone":"8","datumn":"在平均海面下333cm","tidetype":"不正规半日混合潮"},{"id":8000120,"cnname":"围头","enname":"WEITOU","cncountry":"中国","encountry":"China","lat":24.516667,"lon":118.566667,"timezone":"8","datumn":"在平均海面下322cm","tidetype":"不正规半日混合潮"},{"id":8000121,"cnname":"石井","enname":"SHIJING","cncountry":"中国","encountry":"China","lat":24.633333,"lon":118.416667,"timezone":"8","datumn":"在平均海面下336cm","tidetype":"不正规半日混合潮"},{"id":8000122,"cnname":"厦门","enname":"XIAMEN","cncountry":"中国","encountry":"China","lat":24.45,"lon":118.066667,"timezone":"8","datumn":"在平均海面下328cm","tidetype":"不正规半日混合潮"},{"id":8000123,"cnname":"将军澳","enname":"JIANGJUNAO","cncountry":"中国","encountry":"China","lat":24.033333,"lon":117.9,"timezone":"8","datumn":"在平均海面下273cm","tidetype":"不正规半日混合潮"},{"id":8000124,"cnname":"石码","enname":"SHIMA","cncountry":"中国","encountry":"China","lat":24.45,"lon":117.816667,"timezone":"8","datumn":"在平均海面下290cm","tidetype":"不正规半日混合潮"},{"id":8000125,"cnname":"东山","enname":"DONGSHAN","cncountry":"中国","encountry":"China","lat":23.733333,"lon":117.533333,"timezone":"8","datumn":"在平均海面下216cm","tidetype":"不正规半日混合潮"},{"id":8000126,"cnname":"马公","enname":"MAGONG","cncountry":"中国","encountry":"China","lat":23.55,"lon":119.566667,"timezone":"8","datumn":"在平均海面下160cm","tidetype":"不正规半日混合潮"},{"id":8000127,"cnname":"基隆","enname":"JILONG","cncountry":"中国","encountry":"China","lat":25.15,"lon":121.733333,"timezone":"8","datumn":"在平均海面下60cm","tidetype":"不正规半日混合潮"},{"id":8000128,"cnname":"高雄","enname":"GAOXIONG","cncountry":"中国","encountry":"China","lat":22.6,"lon":120.283333,"timezone":"8","datumn":"在平均海面下60cm","tidetype":"不正规半日混合潮"},{"id":8000129,"cnname":"南澳岛(云澳湾)","enname":"NANAODAO(YUNAO)","cncountry":"中国","encountry":"China","lat":23.4,"lon":117.1,"timezone":"8","datumn":"在平均海面下145cm","tidetype":"不正规半日混合潮"},{"id":8000130,"cnname":"潮州港(三百门)","enname":"CHAOZHOU〖KG*2〗GANG(SANBAIMEN)","cncountry":"中国","encountry":"China","lat":23.6,"lon":116.966667,"timezone":"8","datumn":"在平均海面下178cm","tidetype":"不正规半日混合潮"},{"id":8000131,"cnname":"汕头(妈屿)","enname":"SHANTOU","cncountry":"中国","encountry":"China","lat":23.333333,"lon":116.733333,"timezone":"8","datumn":"在平均海面下137cm","tidetype":"不正规半日混合潮"},{"id":8000132,"cnname":"海门(广东)","enname":"HAIMEN(GUANGDONG)","cncountry":"中国","encountry":"China","lat":23.183333,"lon":116.616667,"timezone":"8","datumn":"在平均海面下111cm","tidetype":"不正规半日混合潮"},{"id":8000133,"cnname":"甲子","enname":"JIAZI","cncountry":"中国","encountry":"China","lat":22.816667,"lon":116.1,"timezone":"8","datumn":"在平均海面下90cm","tidetype":"正规日潮"},{"id":8000134,"cnname":"汕尾","enname":"SHANWEI","cncountry":"中国","encountry":"China","lat":22.766667,"lon":115.366667,"timezone":"8","datumn":"在平均海面下100cm","tidetype":"不正规半日混合潮"},{"id":8000135,"cnname":"马鞭洲(广石化)","enname":"MABIANZHOU(GUANGSHIHUA)","cncountry":"中国","encountry":"China","lat":22.666667,"lon":114.65,"timezone":"8","datumn":"在平均海面下116cm","tidetype":"不正规半日混合潮"},{"id":8000136,"cnname":"惠州港","enname":"HUIZHOUGANG","cncountry":"中国","encountry":"China","lat":22.7,"lon":114.533333,"timezone":"8","datumn":"在平均海面下135cm","tidetype":"不正规半日混合潮"},{"id":8000137,"cnname":"大亚湾","enname":"DAYAWAN","cncountry":"中国","encountry":"China","lat":22.6,"lon":114.533333,"timezone":"8","datumn":"在平均海面下120cm","tidetype":"不正规半日混合潮"},{"id":8000138,"cnname":"大鹏湾(盐田港)","enname":"DAPENGWAN(YANTIANGANG)","cncountry":"中国","encountry":"China","lat":22.583333,"lon":114.266667,"timezone":"8","datumn":"在平均海面下116cm","tidetype":"不正规半日混合潮"},{"id":8000139,"cnname":"香港","enname":"XIANGGANG","cncountry":"中国","encountry":"China","lat":22.3,"lon":114.166667,"timezone":"8","datumn":"在平均海面下138cm","tidetype":"不正规半日混合潮"},{"id":8000140,"cnname":"蛇口(赤湾)","enname":"SHEKOU(CHIWAN)","cncountry":"中国","encountry":"China","lat":22.466667,"lon":113.883333,"timezone":"8","datumn":"在平均海面下152cm","tidetype":"不正规半日混合潮"},{"id":8000141,"cnname":"桂山岛","enname":"GUISHANDAO","cncountry":"中国","encountry":"China","lat":22.133333,"lon":113.816667,"timezone":"8","datumn":"在平均海面下140cm","tidetype":"正规日潮"},{"id":8000142,"cnname":"内伶仃岛","enname":"NEILINGDING","cncountry":"中国","encountry":"China","lat":22.416667,"lon":113.8,"timezone":"8","datumn":"在平均海面下170cm","tidetype":"不正规半日混合潮"},{"id":8000143,"cnname":"舢舨洲","enname":"SHANBANZHOU","cncountry":"中国","encountry":"China","lat":22.716667,"lon":113.666667,"timezone":"8","datumn":"在平均海面下190cm","tidetype":"不正规半日混合潮"},{"id":8000144,"cnname":"深圳机场(油码头)","enname":"SHENZHENJICHANG(YOUMATOU)","cncountry":"中国","encountry":"China","lat":22.633333,"lon":113.8,"timezone":"8","datumn":"在平均海面下170cm","tidetype":"不正规半日混合潮"},{"id":8000145,"cnname":"南沙(水牛头)","enname":"NANSHA(SHUINIUTOU)","cncountry":"中国","encountry":"China","lat":22.75,"lon":113.566667,"timezone":"8","datumn":"在平均海面下140cm","tidetype":"不正规半日混合潮"},{"id":8000146,"cnname":"海沁","enname":"HAIQIN","cncountry":"中国","encountry":"China","lat":22.966667,"lon":113.533333,"timezone":"8","datumn":"在平均海面下176cm","tidetype":"不正规半日混合潮"},{"id":8000147,"cnname":"黄埔","enname":"HUANGPU","cncountry":"中国","encountry":"China","lat":23.1,"lon":113.466667,"timezone":"8","datumn":"在平均海面下155cm","tidetype":"不正规半日混合潮"},{"id":8000148,"cnname":"广州","enname":"GUANGZHOU","cncountry":"中国","encountry":"China","lat":23.083333,"lon":113.233333,"timezone":"8","datumn":"在平均海面下134cm","tidetype":"不正规半日混合潮"},{"id":8000149,"cnname":"北街","enname":"BEIJIE","cncountry":"中国","encountry":"China","lat":22.6,"lon":113.116667,"timezone":"8","datumn":"在平均海面下60cm","tidetype":"不正规半日混合潮"},{"id":8000150,"cnname":"横门","enname":"HENGMEN","cncountry":"中国","encountry":"China","lat":22.633333,"lon":113.516667,"timezone":"8","datumn":"在平均海面下123cm","tidetype":"不正规半日混合潮"},{"id":8000151,"cnname":"珠海(香洲)","enname":"ZHUHAI(XIANGZHOU)","cncountry":"中国","encountry":"China","lat":22.283333,"lon":113.583333,"timezone":"8","datumn":"在平均海面下150cm","tidetype":"不正规半日混合潮"},{"id":8000152,"cnname":"珠海(九洲港)","enname":"ZHUHAI(JIUZHOUGANG)","cncountry":"中国","encountry":"China","lat":22.25,"lon":113.583333,"timezone":"8","datumn":"在平均海面下139cm","tidetype":"不正规半日混合潮"},{"id":8000153,"cnname":"澳门","enname":"AOMEN","cncountry":"中国","encountry":"China","lat":22.216667,"lon":113.55,"timezone":"8","datumn":"在平均海面下202cm","tidetype":"不正规半日混合潮"},{"id":8000154,"cnname":"东澳岛","enname":"DONGAODAO","cncountry":"中国","encountry":"China","lat":22.016667,"lon":113.7,"timezone":"8","datumn":"在平均海面下130cm","tidetype":"不正规半日混合潮"},{"id":8000155,"cnname":"大万山","enname":"DAWANSHAN","cncountry":"中国","encountry":"China","lat":21.933333,"lon":113.716667,"timezone":"8","datumn":"在平均海面下126cm","tidetype":"不正规半日混合潮"},{"id":8000156,"cnname":"灯笼山","enname":"DENGLONGSHAN","cncountry":"中国","encountry":"China","lat":22.233333,"lon":113.4,"timezone":"8","datumn":"在平均海面下119cm","tidetype":"不正规半日混合潮"},{"id":8000157,"cnname":"三灶岛","enname":"SANZAODAO","cncountry":"中国","encountry":"China","lat":22.033333,"lon":113.4,"timezone":"8","datumn":"在平均海面下140cm","tidetype":"不正规半日混合潮"},{"id":8000158,"cnname":"珠海港","enname":"ZHUHAIGANG","cncountry":"中国","encountry":"China","lat":21.933333,"lon":113.233333,"timezone":"8","datumn":"在平均海面下148cm","tidetype":"正规日潮"},{"id":8000159,"cnname":"横山","enname":"HENGSHAN","cncountry":"中国","encountry":"China","lat":22.333333,"lon":113.183333,"timezone":"8","datumn":"在平均海面下95cm","tidetype":"不正规半日混合潮"},{"id":8000160,"cnname":"井岸(白蕉)","enname":"JINGAN(BAIJIAO)","cncountry":"中国","encountry":"China","lat":22.216667,"lon":113.3,"timezone":"8","datumn":"在平均海面下107cm","tidetype":"不正规半日混合潮"},{"id":8000161,"cnname":"上川岛(三洲湾)","enname":"SHANGCHUANDAO(SANZHOUWAN)","cncountry":"中国","encountry":"China","lat":21.75,"lon":112.766667,"timezone":"8","datumn":"在平均海面下158cm","tidetype":"不正规半日混合潮"},{"id":8000162,"cnname":"北津","enname":"BEIJIN","cncountry":"中国","encountry":"China","lat":21.8,"lon":112.016667,"timezone":"8","datumn":"在平均海面下150cm","tidetype":"正规日潮"},{"id":8000163,"cnname":"海陵山岛(闸坡)","enname":"HAILINGSHANDAO(ZHAPO)","cncountry":"中国","encountry":"China","lat":21.583333,"lon":111.816667,"timezone":"8","datumn":"在平均海面下170cm","tidetype":"正规日潮"},{"id":8000164,"cnname":"电白","enname":"DIANBAI","cncountry":"中国","encountry":"China","lat":21.5,"lon":111.266667,"timezone":"8","datumn":"在平均海面下174cm","tidetype":"不正规半日混合潮"},{"id":8000165,"cnname":"博贺","enname":"BOHE","cncountry":"中国","encountry":"China","lat":21.483333,"lon":111.233333,"timezone":"8","datumn":"在平均海面下170cm","tidetype":"不正规半日混合潮"},{"id":8000166,"cnname":"西葛","enname":"XIGE","cncountry":"中国","encountry":"China","lat":21.466667,"lon":111.1,"timezone":"8","datumn":"在平均海面下180cm","tidetype":"不正规半日混合潮"},{"id":8000167,"cnname":"茂石化(水东港)","enname":"MAOSHIHUA(SHUIDONGGANG)","cncountry":"中国","encountry":"China","lat":21.466667,"lon":111.066667,"timezone":"8","datumn":"在平均海面下197cm","tidetype":"不正规半日混合潮"},{"id":8000168,"cnname":"硇洲岛(北港)","enname":"NAOZHOUDAO(BEIGANG)","cncountry":"中国","encountry":"China","lat":20.9,"lon":110.55,"timezone":"8","datumn":"在平均海面下190cm","tidetype":"不正规半日混合潮"},{"id":8000169,"cnname":"湛江","enname":"ZHANJIANG","cncountry":"中国","encountry":"China","lat":21.166667,"lon":110.4,"timezone":"8","datumn":"在平均海面下220cm","tidetype":"不正规半日混合潮"},{"id":8000170,"cnname":"下港","enname":"XIAGANG","cncountry":"中国","encountry":"China","lat":20.516667,"lon":110.533333,"timezone":"8","datumn":"在平均海面下120cm","tidetype":"不正规半日混合潮"},{"id":8000171,"cnname":"海安","enname":"HAIAN","cncountry":"中国","encountry":"China","lat":20.216667,"lon":110.116667,"timezone":"8","datumn":"在平均海面下170cm","tidetype":"正规日潮"},{"id":8000172,"cnname":"流沙","enname":"LIUSHA","cncountry":"中国","encountry":"China","lat":20.466667,"lon":110,"timezone":"8","datumn":"在平均海面下200cm","tidetype":"正规日潮"},{"id":8000173,"cnname":"乌石","enname":"WUSHI","cncountry":"中国","encountry":"China","lat":20.55,"lon":109.833333,"timezone":"8","datumn":"在平均海面下190cm","tidetype":"不正规半日混合潮"},{"id":8000174,"cnname":"下泊","enname":"XIABO","cncountry":"中国","encountry":"China","lat":21.266667,"lon":109.766667,"timezone":"8","datumn":"在平均海面下280cm","tidetype":"正规日潮"},{"id":8000175,"cnname":"东沙岛(东沙群岛)","enname":"DONGSHADAO(DONGSHA〖KG*2〗QUNDAO)","cncountry":"中国","encountry":"China","lat":20.7,"lon":116.716667,"timezone":"8","datumn":"在平均海面下70cm","tidetype":"正规日潮"},{"id":8000176,"cnname":"海口(秀英)","enname":"HAIKOU(XIUYING)","cncountry":"中国","encountry":"China","lat":20.016667,"lon":110.283333,"timezone":"8","datumn":"在平均海面下150cm","tidetype":"正规日潮"},{"id":8000177,"cnname":"铺前","enname":"PUQIAN","cncountry":"中国","encountry":"China","lat":20.033333,"lon":110.566667,"timezone":"8","datumn":"在平均海面下130cm","tidetype":"不正规半日混合潮"},{"id":8000178,"cnname":"清澜","enname":"QINGLAN","cncountry":"中国","encountry":"China","lat":19.566667,"lon":110.816667,"timezone":"8","datumn":"在平均海面下95cm","tidetype":"正规日潮"},{"id":8000179,"cnname":"博鳌","enname":"BOAO","cncountry":"中国","encountry":"China","lat":19.2,"lon":110.6,"timezone":"8","datumn":"在平均海面下90cm","tidetype":"正规日潮"},{"id":8000180,"cnname":"新村","enname":"XINCUN","cncountry":"中国","encountry":"China","lat":18.416667,"lon":109.966667,"timezone":"8","datumn":"在平均海面下90cm","tidetype":"正规日潮"},{"id":8000181,"cnname":"牙笼港","enname":"YALONGGANG","cncountry":"中国","encountry":"China","lat":18.216667,"lon":109.7,"timezone":"8","datumn":"在平均海面下90cm","tidetype":"正规日潮"},{"id":8000182,"cnname":"三亚","enname":"SANYA","cncountry":"中国","encountry":"China","lat":18.233333,"lon":109.5,"timezone":"8","datumn":"在平均海面下90cm","tidetype":"正规日潮"},{"id":8000183,"cnname":"莺歌海","enname":"YINGGEHAI","cncountry":"中国","encountry":"China","lat":18.5,"lon":108.716667,"timezone":"8","datumn":"在平均海面下74cm","tidetype":"不正规半日混合潮"},{"id":8000184,"cnname":"东方(八所)","enname":"DONGFANG(BASUO)","cncountry":"中国","encountry":"China","lat":19.1,"lon":108.616667,"timezone":"8","datumn":"在平均海面下145cm","tidetype":"正规日潮"},{"id":8000185,"cnname":"洋浦","enname":"YANGPU","cncountry":"中国","encountry":"China","lat":19.733333,"lon":109.183333,"timezone":"8","datumn":"在平均海面下195cm","tidetype":"正规日潮"},{"id":8000186,"cnname":"新盈","enname":"XINYING","cncountry":"中国","encountry":"China","lat":19.9,"lon":109.516667,"timezone":"8","datumn":"在平均海面下205cm","tidetype":"正规日潮"},{"id":8000187,"cnname":"马村港","enname":"MACUNGANG","cncountry":"中国","encountry":"China","lat":19.95,"lon":110.033333,"timezone":"8","datumn":"在平均海面下174cm","tidetype":"正规日潮"},{"id":8000191,"cnname":"铁山港(石头埠)","enname":"TIESHANGANG(SHITOUBU)","cncountry":"中国","encountry":"China","lat":21.583333,"lon":109.566667,"timezone":"8","datumn":"在平均海面下359cm","tidetype":"不正规半日混合潮"},{"id":8000192,"cnname":"涠洲岛","enname":"WEIZHOUDAO","cncountry":"中国","encountry":"China","lat":21.016667,"lon":109.116667,"timezone":"8","datumn":"在平均海面下240cm","tidetype":"正规日潮"},{"id":8000193,"cnname":"北海","enname":"BEIHAI","cncountry":"中国","encountry":"China","lat":21.483333,"lon":109.083333,"timezone":"8","datumn":"在平均海面下255cm","tidetype":"正规日潮"},{"id":8000194,"cnname":"龙门","enname":"LONGMEN","cncountry":"中国","encountry":"China","lat":21.75,"lon":108.55,"timezone":"8","datumn":"在平均海面下250cm","tidetype":"正规日潮"},{"id":8000195,"cnname":"企沙","enname":"QISHA","cncountry":"中国","encountry":"China","lat":21.583333,"lon":108.483333,"timezone":"8","datumn":"在平均海面下230cm","tidetype":"正规日潮"},{"id":8000196,"cnname":"炮台角","enname":"PAOTAIJIAO","cncountry":"中国","encountry":"China","lat":21.566667,"lon":108.383333,"timezone":"8","datumn":"在平均海面下230cm","tidetype":"正规日潮"},{"id":8000197,"cnname":"防城港","enname":"FANGCHENGGANG","cncountry":"中国","encountry":"China","lat":21.6,"lon":108.333333,"timezone":"8","datumn":"在平均海面下230cm","tidetype":"正规日潮"},{"id":8000198,"cnname":"珍珠港","enname":"ZHENZHUGANG","cncountry":"中国","encountry":"China","lat":21.516667,"lon":108.216667,"timezone":"8","datumn":"在平均海面下230cm","tidetype":"正规日潮"},{"id":8000199,"cnname":"白龙尾","enname":"BAILONGWEI","cncountry":"中国","encountry":"China","lat":21.5,"lon":108.233333,"timezone":"8","datumn":"在平均海面下282cm","tidetype":"正规日潮"},{"id":8000200,"cnname":"南浦","enname":"D.P.R.K.-NAMPO","cncountry":"中国","encountry":"China","lat":38.683333,"lon":125.4,"timezone":"8","datumn":"在平均海面下305cm","tidetype":"不正规半日混合潮"},{"id":8000206,"cnname":"那霸","enname":"JAPAN-NAHA","cncountry":"中国","encountry":"China","lat":26.216667,"lon":127.666667,"timezone":"8","datumn":"在平均海面下118cm","tidetype":"不正规半日混合潮"},{"id":8000241,"cnname":"宇岛","enname":"VIETNAM-HON NIEU","cncountry":"中国","encountry":"China","lat":18.8,"lon":105.766667,"timezone":"8","datumn":"在平均海面下182cm","tidetype":"正规日潮"},{"id":8000242,"cnname":"哑门附近(昏瑶岛)","enname":"VIETNAM-CUA CAM APPROACHES (HON DAU)","cncountry":"中国","encountry":"China","lat":20.666667,"lon":106.816667,"timezone":"8","datumn":"在平均海面下183cm","tidetype":"正规日潮"},{"id":8000484,"cnname":"钓鱼岛","enname":"DIAOYUDAO","cncountry":"中国","encountry":"China","lat":25.733333,"lon":123.466667,"timezone":"8","datumn":"在平均海面下105cm","tidetype":"不正规半日混合潮"},{"id":9007152,"cnname":"普台","enname":"Putai","cncountry":"中国","encountry":"China","lat":23.458995,"lon":120.149574,"timezone":"8","datumn":"在平均海平面下","tidetype":"不正规半日混合潮"},{"id":9007167,"cnname":"七美屿","enname":"Ch'i-MeiYu","cncountry":"中国","encountry":"China","lat":23.21161,"lon":119.425764,"timezone":"8","datumn":"在平均海平面下","tidetype":"不正规半日混合潮"},{"id":9007168,"cnname":"将军澳屿","enname":"Chiang-ChunKang-Tao","cncountry":"中国","encountry":"China","lat":23.364438,"lon":119.524426,"timezone":"8","datumn":"在平均海面下273cm","tidetype":"不正规半日混合潮"},{"id":9007170,"cnname":"小门渔港","enname":"Niu-KungWan","cncountry":"中国","encountry":"China","lat":23.648111,"lon":119.520103,"timezone":"8","datumn":"在平均海平面下","tidetype":"不正规半日混合潮"},{"id":9007171,"cnname":"澎湖湾","enname":"Ch'i-PeiYu","cncountry":"中国","encountry":"China","lat":23.66072,"lon":119.553051,"timezone":"8","datumn":"在平均海平面下","tidetype":"不正规半日混合潮"},{"id":9007173,"cnname":"淡水港","enname":"Tan-ShuiKang","cncountry":"中国","encountry":"China","lat":25.176359,"lon":121.413345,"timezone":"8","datumn":"在平均海平面下","tidetype":"不正规半日混合潮"},{"id":9007175,"cnname":"后龙港","enname":"Hou-Lung","cncountry":"中国","encountry":"China","lat":24.615809,"lon":120.753479,"timezone":"8","datumn":"在平均海平面下","tidetype":"不正规半日混合潮"},{"id":9007178,"cnname":"方园","enname":"Fang-Yuan","cncountry":"中国","encountry":"China","lat":23.963666,"lon":120.340118,"timezone":"8","datumn":"在平均海平面下","tidetype":"不正规半日混合潮"},{"id":9007179,"cnname":"台市","enname":"T'ai-Hsi","cncountry":"中国","encountry":"China","lat":23.694835,"lon":120.201416,"timezone":"8","datumn":"在平均海平面下","tidetype":"不正规半日混合潮"},{"id":9007181,"cnname":"青山港汕","enname":"Kuo-ShengKang","cncountry":"中国","encountry":"China","lat":23.22431,"lon":120.074387,"timezone":"8","datumn":"在平均海平面下","tidetype":"不正规半日混合潮"},{"id":9007182,"cnname":"安平港","enname":"An-P'ingKang","cncountry":"中国","encountry":"China","lat":22.96598,"lon":120.166054,"timezone":"8","datumn":"在平均海平面下","tidetype":"不正规半日混合潮"},{"id":9007186,"cnname":"车城","enname":"Ch'e-Ch'eng","cncountry":"中国","encountry":"China","lat":22.069414,"lon":120.700436,"timezone":"8","datumn":"在平均海平面下","tidetype":"不正规半日混合潮"},{"id":9007187,"cnname":"大阪埒","enname":"Ta-Pan-Lieh","cncountry":"中国","encountry":"China","lat":21.961196,"lon":120.750561,"timezone":"8","datumn":"在平均海平面下","tidetype":"不正规半日混合潮"},{"id":9007188,"cnname":"八代湾","enname":"Pa-TaiWan","cncountry":"中国","encountry":"China","lat":22.019055,"lon":121.564579,"timezone":"8","datumn":"在平均海平面下","tidetype":"不正规半日混合潮"},{"id":9007190,"cnname":"南寮湾","enname":"Nan-LiaoWan","cncountry":"中国","encountry":"China","lat":22.659403,"lon":121.477375,"timezone":"8","datumn":"在平均海平面下","tidetype":"不正规半日混合潮"},{"id":9007191,"cnname":"加路兰","enname":"Fu-Kang(Chia-Lu-Lan)","cncountry":"中国","encountry":"China","lat":22.820492,"lon":121.199284,"timezone":"8","datumn":"在平均海平面下","tidetype":"不正规半日混合潮"},{"id":9007192,"cnname":"成功镇","enname":"Ch'eng-Kuang-Ao","cncountry":"中国","encountry":"China","lat":23.148726,"lon":121.403089,"timezone":"8","datumn":"在平均海平面下","tidetype":"不正规半日混合潮"},{"id":9007196,"cnname":"苏澳","enname":"Su-AoKang","cncountry":"中国","encountry":"China","lat":24.584593,"lon":121.86533,"timezone":"8","datumn":"在平均海平面下","tidetype":"不正规半日混合潮"},{"id":9007283,"cnname":"合庆","enname":"Heqing","cncountry":"中国","encountry":"China","lat":31.246517,"lon":121.747484,"timezone":"8","datumn":"在平均海面下197cm","tidetype":"不正规半日混合潮"},{"id":9007288,"cnname":"常熟","enname":"Changshu","cncountry":"中国","encountry":"China","lat":31.76645,"lon":120.944227,"timezone":"8","datumn":"在平均海面下150cm","tidetype":"不正规半日混合潮"},{"id":9007291,"cnname":"江阴港","enname":"Jiangyin","cncountry":"中国","encountry":"China","lat":31.922963,"lon":120.263412,"timezone":"8","datumn":"在平均海面下150cm","tidetype":"不正规半日混合潮"},{"id":9007301,"cnname":"糖芦港","enname":"SanChiaChun","cncountry":"中国","encountry":"China","lat":31.94081,"lon":121.819649,"timezone":"8","datumn":"在平均海面下310cm","tidetype":"不正规半日混合潮"},{"id":9007315,"cnname":"黄家塘","enname":"Huangjiatang","cncountry":"中国","encountry":"China","lat":35.541958,"lon":119.65365,"timezone":"8","datumn":"在平均海面下288cm","tidetype":"不正规半日混合潮"},{"id":9007319,"cnname":"崂山港","enname":"LaoshanGang","cncountry":"中国","encountry":"China","lat":36.100469,"lon":120.534279,"timezone":"8","datumn":"在平均海面下231cm","tidetype":"不正规半日混合潮"},{"id":9007322,"cnname":"鲁岛","enname":"NuDao","cncountry":"中国","encountry":"China","lat":36.612039,"lon":120.949259,"timezone":"8","datumn":"在平均海面下220cm","tidetype":"不正规半日混合潮"},{"id":9007324,"cnname":"凤城镇","enname":"Fengcheng","cncountry":"中国","encountry":"China","lat":36.694473,"lon":121.216817,"timezone":"8","datumn":"在平均海面下183cm","tidetype":"不正规半日混合潮"},{"id":9007326,"cnname":"蛟龙咀","enname":"GulongZui","cncountry":"中国","encountry":"China","lat":36.740173,"lon":121.612652,"timezone":"8","datumn":"在平均海面下220cm","tidetype":"不正规半日混合潮"},{"id":9007329,"cnname":"靖海角","enname":"JinghaiJiao","cncountry":"中国","encountry":"China","lat":36.845693,"lon":122.180987,"timezone":"8","datumn":"在平均海面下166cm","tidetype":"不正规半日混合潮"},{"id":9007332,"cnname":"桑沟湾","enname":"sanggouwan","cncountry":"中国","encountry":"China","lat":37.090131,"lon":122.498641,"timezone":"8","datumn":"在平均海面下94cm","tidetype":"不正规半日混合潮"},{"id":9007333,"cnname":"外遮岛","enname":"WaizheDao","cncountry":"中国","encountry":"China","lat":37.255155,"lon":122.576058,"timezone":"8","datumn":"在平均海面下94cm","tidetype":"不正规半日混合潮"},{"id":9007334,"cnname":"龙须湾","enname":"LongxuWan","cncountry":"中国","encountry":"China","lat":37.381704,"lon":122.664314,"timezone":"8","datumn":"在平均海面下94cm","tidetype":"不正规半日混合潮"},{"id":9007336,"cnname":"鸡鸣岛","enname":"JimingDao","cncountry":"中国","encountry":"China","lat":37.448864,"lon":122.470008,"timezone":"8","datumn":"在平均海面下94cm","tidetype":"不正规半日混合潮"},{"id":9007341,"cnname":"獐岛","enname":"LianShi","cncountry":"中国","encountry":"China","lat":37.483716,"lon":121.647586,"timezone":"8","datumn":"在平均海面下135cm","tidetype":"不正规半日混合潮"},{"id":9007346,"cnname":"南隍城岛","enname":"NanhuangchengDao","cncountry":"中国","encountry":"China","lat":38.369117,"lon":120.909004,"timezone":"8","datumn":"在平均海面下100cm","tidetype":"不正规半日混合潮"},{"id":9007349,"cnname":"螳螂岛","enname":"TANGLANGDAO","cncountry":"中国","encountry":"China","lat":37.97378,"lon":120.678526,"timezone":"8","datumn":"在平均海面下92cm","tidetype":"不正规半日混合潮"},{"id":9007350,"cnname":"桑岛","enname":"SangDao","cncountry":"中国","encountry":"China","lat":37.779985,"lon":120.442086,"timezone":"8","datumn":"在平均海面下95cm","tidetype":"不正规半日混合潮"},{"id":9007351,"cnname":"栾家口","enname":"Luanjiakou","cncountry":"中国","encountry":"China","lat":37.784212,"lon":120.631009,"timezone":"8","datumn":"在平均海面下92cm","tidetype":"不正规半日混合潮"},{"id":9007358,"cnname":"莱州湾","enname":"SiaochingHoBar","cncountry":"中国","encountry":"China","lat":37.27676,"lon":118.94336,"timezone":"8","datumn":"在平均海面下120cm","tidetype":"不正规半日混合潮"},{"id":9007359,"cnname":"大口河","enname":"DakouHe","cncountry":"中国","encountry":"China","lat":38.34097,"lon":117.728769,"timezone":"8","datumn":"在平均海面下253cm","tidetype":"不正规半日混合潮"},{"id":9007366,"cnname":"天津港","enname":"TIANJINGANG","cncountry":"中国","encountry":"China","lat":38.868841,"lon":117.789189,"timezone":"8","datumn":"在平均海面下241cm","tidetype":"不正规半日混合潮"},{"id":9007375,"cnname":"大埔河口","enname":"DapuheKou","cncountry":"中国","encountry":"China","lat":39.680454,"lon":119.328645,"timezone":"8","datumn":"在平均海面下75cm","tidetype":"不正规半日混合潮"},{"id":9007381,"cnname":"龟石礁","enname":"Hsinlutu","cncountry":"中国","encountry":"China","lat":40.140818,"lon":120.235771,"timezone":"8","datumn":"在平均海面下142cm","tidetype":"正规日潮"},{"id":9007385,"cnname":"长山市","enname":"Changshansu","cncountry":"中国","encountry":"China","lat":40.381711,"lon":120.586801,"timezone":"8","datumn":"在平均海面下142cm","tidetype":"不正规半日混合潮"},{"id":9007388,"cnname":"葫芦岛港","enname":"HuludaoGang","cncountry":"中国","encountry":"China","lat":40.715281,"lon":120.984723,"timezone":"8","datumn":"在平均海面下160cm","tidetype":"不正规半日混合潮"},{"id":9007392,"cnname":"辽河口","enname":"LiaoheKou","cncountry":"中国","encountry":"China","lat":40.57268,"lon":122.051331,"timezone":"8","datumn":"在平均海面下209cm","tidetype":"不正规半日混合潮"},{"id":9007394,"cnname":"营口港区","enname":"YingkouGangqu","cncountry":"中国","encountry":"China","lat":40.68849,"lon":122.264677,"timezone":"8","datumn":"在平均海面下200cm","tidetype":"不正规半日混合潮"},{"id":9007403,"cnname":"西中岛","enname":"XizhongDao","cncountry":"中国","encountry":"China","lat":39.440205,"lon":121.297483,"timezone":"8","datumn":"在平均海面下130cm","tidetype":"不正规半日混合潮"},{"id":9007405,"cnname":"宝鸡岛","enname":"BojiDao","cncountry":"中国","encountry":"China","lat":39.356548,"lon":121.663011,"timezone":"8","datumn":"在平均海面下150cm","tidetype":"不正规半日混合潮"},{"id":9007416,"cnname":"旅顺口","enname":"Lushunkou","cncountry":"中国","encountry":"China","lat":38.804047,"lon":121.247156,"timezone":"8","datumn":"在平均海面下145cm","tidetype":"不正规半日混合潮"},{"id":9007418,"cnname":"屿烟","enname":"YuYan","cncountry":"中国","encountry":"China","lat":38.427774,"lon":122.11853,"timezone":"8","datumn":"在平均海平面下","tidetype":"不正规半日混合潮"},{"id":9007429,"cnname":"海洋岛","enname":"HaiyangDao","cncountry":"中国","encountry":"China","lat":39.053318,"lon":123.181458,"timezone":"8","datumn":"在平均海平面下","tidetype":"不正规半日混合潮"},{"id":9007432,"cnname":"大王家岛","enname":"DawangjiaDao","cncountry":"中国","encountry":"China","lat":39.440579,"lon":123.062575,"timezone":"8","datumn":"在平均海平面下","tidetype":"不正规半日混合潮"},{"id":9007436,"cnname":"南岛头","enname":"Qianyang","cncountry":"中国","encountry":"China","lat":39.722587,"lon":123.442051,"timezone":"8","datumn":"在平均海面下200cm","tidetype":"不正规半日混合潮"},{"id":9071761,"cnname":"台中港","enname":"T'ai-ChungKang","cncountry":"中国","encountry":"China","lat":24.221919,"lon":120.478821,"timezone":"8","datumn":"在平均海平面下","tidetype":"不正规半日混合潮"},{"id":28261,"cnname":"","enname":"Buenaventura","cncountry":"哥伦比亚","encountry":"Colombia","lat":3.883333,"lon":-77.083333,"timezone":"-5","datumn":"在平均海平面下","tidetype":"不正规半日混合潮"},{"id":28728,"cnname":"","enname":"Golfito","cncountry":"哥斯达黎加","encountry":"Costa Rica","lat":8.633333,"lon":-83.183333,"timezone":"-6","datumn":"在平均海平面下","tidetype":"不正规半日混合潮"},{"id":28781,"cnname":"","enname":"Puerto Limon","cncountry":"哥斯达黎加","encountry":"Costa Rica","lat":9.987817,"lon":-83.0215,"timezone":"-6","datumn":"在平均海平面下","tidetype":"正规半日潮"},{"id":28807,"cnname":"","enname":"Puntarenas","cncountry":"哥斯达黎加","encountry":"Costa Rica","lat":9.966666,"lon":-84.833333,"timezone":"-6","datumn":"在平均海平面下","tidetype":"不正规半日混合潮"},{"id":28822,"cnname":"","enname":"Quepos","cncountry":"哥斯达黎加","encountry":"Costa Rica","lat":9.416667,"lon":-84.166667,"timezone":"-6","datumn":"在平均海平面下","tidetype":"不正规半日混合潮"},{"id":28904,"cnname":"","enname":"Antilla","cncountry":"古巴","encountry":"Cuba","lat":20.823317,"lon":-75.7442,"timezone":"-5","datumn":"在平均海平面下","tidetype":"不正规半日混合潮"},{"id":29100,"cnname":"","enname":"Baracoa","cncountry":"古巴","encountry":"Cuba","lat":20.354667,"lon":-74.502467,"timezone":"-5","datumn":"在平均海平面下","tidetype":"不正规半日混合潮"},{"id":29054,"cnname":"","enname":"Bahia Honda","cncountry":"古巴","encountry":"Cuba","lat":22.970183,"lon":-83.165767,"timezone":"-5","datumn":"在平均海平面下","tidetype":"不正规半日混合潮"},{"id":29311,"cnname":"","enname":"Casilda","cncountry":"古巴","encountry":"Cuba","lat":21.75225,"lon":-79.92475,"timezone":"-5","datumn":"在平均海平面下","tidetype":"不正规半日混合潮"},{"id":29756,"cnname":"","enname":"Cardenas","cncountry":"古巴","encountry":"Cuba","lat":23.0488,"lon":-81.196033,"timezone":"-5","datumn":"在平均海平面下","tidetype":"不正规半日混合潮"},{"id":29794,"cnname":"","enname":"Cienfuegos","cncountry":"古巴","encountry":"Cuba","lat":22.16385,"lon":-80.47605,"timezone":"-5","datumn":"在平均海平面下","tidetype":"不正规半日混合潮"},{"id":29807,"cnname":"","enname":"Preston","cncountry":"古巴","encountry":"Cuba","lat":20.758333,"lon":-75.658,"timezone":"0","datumn":"在平均海平面下","tidetype":"正规半日潮"},{"id":29500,"cnname":"","enname":"Isabela de Sagua","cncountry":"古巴","encountry":"Cuba","lat":22.943467,"lon":-80.013,"timezone":"-5","datumn":"在平均海平面下","tidetype":"不正规半日混合潮"},{"id":29824,"cnname":"","enname":"Nuevitas","cncountry":"古巴","encountry":"Cuba","lat":21.558233,"lon":-77.224867,"timezone":"-5","datumn":"在平均海平面下","tidetype":"不正规半日混合潮"},{"id":29908,"cnname":"","enname":"Puerto Padre","cncountry":"古巴","encountry":"Cuba","lat":21.23025,"lon":-76.544117,"timezone":"-5","datumn":"在平均海平面下","tidetype":"不正规半日混合潮"},{"id":29922,"cnname":"","enname":"Punta Gorda","cncountry":"古巴","encountry":"Cuba","lat":20.633333,"lon":-74.85,"timezone":"-4.5","datumn":"在平均海平面下","tidetype":"不正规半日混合潮"},{"id":30028,"cnname":"","enname":"Santiago de Cuba","cncountry":"古巴","encountry":"Cuba","lat":19.993833,"lon":-75.865983,"timezone":"-5","datumn":"在平均海平面下","tidetype":"不正规半日混合潮"},{"id":255195,"cnname":"","enname":"Porto Novo","cncountry":"佛得角","encountry":"Cape Verde","lat":17.016666,"lon":-25.066667,"timezone":"5.5","datumn":"在平均海平面下","tidetype":"不正规半日混合潮"},{"id":255206,"cnname":"","enname":"Porto de Sal Rei","cncountry":"佛得角","encountry":"Cape Verde","lat":16.178667,"lon":-22.923,"timezone":"-1","datumn":"在平均海平面下","tidetype":"不正规半日混合潮"},{"id":23725,"cnname":"","enname":"Willemstad","cncountry":"库拉索","encountry":"Cura?ao","lat":12.1036,"lon":-68.9367,"timezone":"-4","datumn":"在平均海平面下","tidetype":"不正规半日混合潮"},{"id":25547,"cnname":"","enname":"Christmas Island","cncountry":"圣诞岛","encountry":"Christmas Island","lat":-10.411367,"lon":105.656333,"timezone":"7","datumn":"在平均海平面下","tidetype":"不正规半日混合潮"},{"id":10004,"cnname":"","enname":"Famagusta","cncountry":"塞浦路斯","encountry":"Cyprus","lat":35.131917,"lon":33.94495,"timezone":"2","datumn":"在平均海平面下","tidetype":"不正规半日混合潮"},{"id":10047,"cnname":"","enname":"Kyrenia","cncountry":"塞浦路斯","encountry":"Cyprus","lat":35.333332,"lon":33.316667,"timezone":"2","datumn":"在平均海平面下","tidetype":"不正规半日混合潮"},{"id":20315,"cnname":"","enname":"Bremerhaven","cncountry":"德国","encountry":"Germany","lat":53.550383,"lon":8.562933,"timezone":"1","datumn":"在平均海平面下","tidetype":"不正规半日混合潮"},{"id":20196,"cnname":"","enname":"Brake","cncountry":"德国","encountry":"Germany","lat":53.333206,"lon":8.476,"timezone":"1","datumn":"在平均海平面下","tidetype":"不正规半日混合潮"},{"id":20210,"cnname":"","enname":"Bremen","cncountry":"德国","encountry":"Germany","lat":53.116665,"lon":8.716667,"timezone":"1","datumn":"在平均海平面下","tidetype":"不正规半日混合潮"},{"id":20549,"cnname":"","enname":"Emden","cncountry":"德国","encountry":"Germany","lat":53.349998,"lon":7.2,"timezone":"1","datumn":"在平均海平面下","tidetype":"不正规半日混合潮"},{"id":20608,"cnname":"","enname":"Gluckstadt","cncountry":"德国","encountry":"Germany","lat":53.784717,"lon":9.40865,"timezone":"1","datumn":"在平均海平面下","tidetype":"不正规半日混合潮"},{"id":20151,"cnname":"","enname":"Wismar","cncountry":"德国","encountry":"Germany","lat":53.9099,"lon":11.441083,"timezone":"1","datumn":"在平均海平面下","tidetype":"不正规半日混合潮"},{"id":21169,"cnname":"","enname":"Nordenham","cncountry":"德国","encountry":"Germany","lat":53.483533,"lon":8.493633,"timezone":"1","datumn":"在平均海平面下","tidetype":"不正规半日混合潮"},{"id":21589,"cnname":"","enname":"Wilhelmshaven","cncountry":"德国","encountry":"Germany","lat":53.5723,"lon":8.166267,"timezone":"1","datumn":"在平均海平面下","tidetype":"不正规半日混合潮"},{"id":24713,"cnname":"","enname":"Cuxhaven","cncountry":"德国","encountry":"Germany","lat":53.866517,"lon":8.71915,"timezone":"1","datumn":"在平均海平面下","tidetype":"不正规半日混合潮"},{"id":27064,"cnname":"","enname":"Busum","cncountry":"德国","encountry":"Germany","lat":54.1269,"lon":8.8654,"timezone":"1","datumn":"在平均海平面下","tidetype":"不正规半日混合潮"},{"id":213198,"cnname":"","enname":"Warnemunde","cncountry":"德国","encountry":"Germany","lat":54.150002,"lon":12.1,"timezone":"1","datumn":"在平均海平面下","tidetype":"不正规半日混合潮"},{"id":251912,"cnname":"","enname":"Helgoland","cncountry":"德国","encountry":"Germany","lat":54.166668,"lon":7.9,"timezone":"1","datumn":"在平均海平面下","tidetype":"不正规半日混合潮"},{"id":224858,"cnname":"","enname":"Hamburg","cncountry":"德国","encountry":"Germany","lat":53.5415,"lon":9.875167,"timezone":"1","datumn":"在平均海平面下","tidetype":"不正规半日混合潮"},{"id":13395,"cnname":"","enname":"Djibouti","cncountry":"吉布提","encountry":"Djibouti","lat":11.602883,"lon":43.131417,"timezone":"3","datumn":"在平均海平面下","tidetype":"不正规半日混合潮"},{"id":10685,"cnname":"","enname":"Esbjerg","cncountry":"丹麦","encountry":"Denmark","lat":55.464183,"lon":8.425067,"timezone":"1","datumn":"在平均海平面下","tidetype":"不正规半日混合潮"},{"id":10900,"cnname":"","enname":"Frederikshavn","cncountry":"丹麦","encountry":"Denmark","lat":57.434267,"lon":10.551233,"timezone":"1","datumn":"在平均海平面下","tidetype":"不正规半日混合潮"},{"id":12641,"cnname":"","enname":"Skagen","cncountry":"丹麦","encountry":"Denmark","lat":57.714533,"lon":10.5931,"timezone":"1","datumn":"在平均海平面下","tidetype":"不正规半日混合潮"},{"id":11228,"cnname":"","enname":"Hirtshals","cncountry":"丹麦","encountry":"Denmark","lat":57.583332,"lon":9.95,"timezone":"1","datumn":"在平均海平面下","tidetype":"不正规半日混合潮"},{"id":21504,"cnname":"","enname":"Hvide Sande","cncountry":"丹麦","encountry":"Denmark","lat":56.00225,"lon":8.124067,"timezone":"1","datumn":"在平均海平面下","tidetype":"不正规半日混合潮"},{"id":25610,"cnname":"","enname":"Gedser","cncountry":"丹麦","encountry":"Denmark","lat":54.5709,"lon":11.926683,"timezone":"1","datumn":"在平均海平面下","tidetype":"不正规半日混合潮"},{"id":254798,"cnname":"","enname":"Fredericia","cncountry":"丹麦","encountry":"Denmark","lat":55.556517,"lon":9.746733,"timezone":"1","datumn":"在平均海平面下","tidetype":"不正规半日混合潮"},{"id":259083,"cnname":"","enname":"Thyboron","cncountry":"丹麦","encountry":"Denmark","lat":56.697567,"lon":8.224317,"timezone":"1","datumn":"在平均海平面下","tidetype":"不正规半日混合潮"},{"id":21706,"cnname":"","enname":"Woodbridge Bay","cncountry":"多米尼克","encountry":"Dominica","lat":15.310817,"lon":-61.390533,"timezone":"-4","datumn":"在平均海平面下","tidetype":"不正规半日混合潮"},{"id":14095,"cnname":"","enname":"Santo Domingo","cncountry":"多米尼加","encountry":"Dominican Republic","lat":18.46365,"lon":-69.887983,"timezone":"-4","datumn":"在平均海平面下","tidetype":"正规日潮"},{"id":13734,"cnname":"","enname":"Puerto Plata","cncountry":"多米尼加","encountry":"Dominican Republic","lat":19.80305,"lon":-70.700317,"timezone":"-4","datumn":"在平均海平面下","tidetype":"不正规半日混合潮"},{"id":13567,"cnname":"","enname":"Arzew","cncountry":"阿尔及利亚","encountry":"Algeria","lat":35.846667,"lon":-0.29834,"timezone":"1","datumn":"在平均海平面下","tidetype":"不正规半日混合潮"},{"id":14118,"cnname":"","enname":"Bahia de Caraquez","cncountry":"厄瓜多尔","encountry":"Ecuador","lat":-0.55,"lon":-80.333333,"timezone":"-5","datumn":"在平均海平面下","tidetype":"不正规半日混合潮"},{"id":14226,"cnname":"","enname":"Esmeraldas","cncountry":"厄瓜多尔","encountry":"Ecuador","lat":0.99285,"lon":-79.6431,"timezone":"-5","datumn":"在平均海平面下","tidetype":"不正规半日混合潮"},{"id":14347,"cnname":"","enname":"Manta","cncountry":"厄瓜多尔","encountry":"Ecuador","lat":-0.916667,"lon":-80.716667,"timezone":"-5","datumn":"在平均海平面下","tidetype":"不正规半日混合潮"},{"id":29876,"cnname":"","enname":"Guayaquil","cncountry":"厄瓜多尔","encountry":"Ecuador","lat":-2.282117,"lon":-79.909317,"timezone":"-5","datumn":"在平均海平面下","tidetype":"不正规半日混合潮"},{"id":259489,"cnname":"","enname":"Posorja","cncountry":"厄瓜多尔","encountry":"Ecuador","lat":-2.705467,"lon":-80.240917,"timezone":"-5","datumn":"在平均海平面下","tidetype":"不正规半日混合潮"},{"id":18867,"cnname":"","enname":"Tallinn","cncountry":"爱沙尼亚","encountry":"Estonia","lat":59.447217,"lon":24.774667,"timezone":"2","datumn":"在平均海平面下","tidetype":"不正规半日混合潮"},{"id":20164,"cnname":"","enname":"Al Qusayr","cncountry":"埃及","encountry":"Egypt","lat":26.101417,"lon":34.2867,"timezone":"2","datumn":"在平均海平面下","tidetype":"不正规半日混合潮"},{"id":14867,"cnname":"","enname":"Port Said","cncountry":"埃及","encountry":"Egypt","lat":31.2687,"lon":32.3223,"timezone":"2","datumn":"在平均海平面下","tidetype":"不正规半日混合潮"},{"id":14928,"cnname":"","enname":"Suez","cncountry":"埃及","encountry":"Egypt","lat":29.938667,"lon":32.542667,"timezone":"2","datumn":"在平均海平面下","tidetype":"不正规半日混合潮"},{"id":19508,"cnname":"","enname":"Muros","cncountry":"西班牙","encountry":"Spain","lat":42.777167,"lon":-9.055967,"timezone":"1","datumn":"在平均海平面下","tidetype":"不正规半日混合潮"},{"id":22147,"cnname":"","enname":"Bermeo","cncountry":"西班牙","encountry":"Spain","lat":43.421083,"lon":-2.713133,"timezone":"1","datumn":"在平均海平面下","tidetype":"不正规半日混合潮"},{"id":21692,"cnname":"","enname":"Ceuta","cncountry":"西班牙","encountry":"Spain","lat":35.895767,"lon":-5.309633,"timezone":"1","datumn":"在平均海平面下","tidetype":"不正规半日混合潮"},{"id":18937,"cnname":"","enname":"Valencia","cncountry":"西班牙","encountry":"Spain","lat":39.429183,"lon":-0.302,"timezone":"1","datumn":"在平均海平面下","tidetype":"不正规半日混合潮"},{"id":18812,"cnname":"","enname":"Santander","cncountry":"西班牙","encountry":"Spain","lat":43.448533,"lon":-3.814583,"timezone":"1","datumn":"在平均海平面下","tidetype":"不正规半日混合潮"},{"id":18622,"cnname":"","enname":"San Esteban de Pravia","cncountry":"西班牙","encountry":"Spain","lat":43.56565,"lon":-6.076583,"timezone":"1","datumn":"在平均海平面下","tidetype":"不正规半日混合潮"},{"id":19488,"cnname":"","enname":"Corcubion","cncountry":"西班牙","encountry":"Spain","lat":42.940817,"lon":-9.187367,"timezone":"1","datumn":"在平均海平面下","tidetype":"不正规半日混合潮"},{"id":19445,"cnname":"","enname":"Aviles","cncountry":"西班牙","encountry":"Spain","lat":43.5946,"lon":-5.9469,"timezone":"1","datumn":"在平均海平面下","tidetype":"不正规半日混合潮"},{"id":19024,"cnname":"","enname":"Vigo","cncountry":"西班牙","encountry":"Spain","lat":42.245367,"lon":-8.728917,"timezone":"1","datumn":"在平均海平面下","tidetype":"不正规半日混合潮"},{"id":18379,"cnname":"","enname":"Palma","cncountry":"西班牙","encountry":"Spain","lat":39.55415,"lon":2.637433,"timezone":"2","datumn":"在平均海平面下","tidetype":"不正规半日混合潮"},{"id":18428,"cnname":"","enname":"Pasajes","cncountry":"西班牙","encountry":"Spain","lat":43.323217,"lon":-1.919,"timezone":"1","datumn":"在平均海平面下","tidetype":"不正规半日混合潮"},{"id":18458,"cnname":"","enname":"Ribadeo","cncountry":"西班牙","encountry":"Spain","lat":43.5317,"lon":-7.0366,"timezone":"1","datumn":"在平均海平面下","tidetype":"不正规半日混合潮"},{"id":18550,"cnname":"","enname":"Rota","cncountry":"西班牙","encountry":"Spain","lat":36.618733,"lon":-6.326483,"timezone":"1","datumn":"在平均海平面下","tidetype":"不正规半日混合潮"},{"id":18256,"cnname":"","enname":"Malaga","cncountry":"西班牙","encountry":"Spain","lat":36.700417,"lon":-4.41665,"timezone":"1","datumn":"在平均海平面下","tidetype":"不正规半日混合潮"},{"id":18171,"cnname":"","enname":"Luarca","cncountry":"西班牙","encountry":"Spain","lat":43.545933,"lon":-6.5327,"timezone":"1","datumn":"在平均海平面下","tidetype":"不正规半日混合潮"},{"id":17975,"cnname":"","enname":"Ferrol","cncountry":"西班牙","encountry":"Spain","lat":43.467733,"lon":-8.2331,"timezone":"1","datumn":"在平均海平面下","tidetype":"不正规半日混合潮"},{"id":18088,"cnname":"","enname":"Huelva","cncountry":"西班牙","encountry":"Spain","lat":37.127183,"lon":-6.829383,"timezone":"1","datumn":"在平均海平面下","tidetype":"不正规半日混合潮"},{"id":17212,"cnname":"","enname":"Alicante","cncountry":"西班牙","encountry":"Spain","lat":38.326167,"lon":-0.4988,"timezone":"1","datumn":"在平均海平面下","tidetype":"不正规半日混合潮"},{"id":17777,"cnname":"","enname":"Cadiz","cncountry":"西班牙","encountry":"Spain","lat":36.56025,"lon":-6.273367,"timezone":"8","datumn":"在平均海平面下","tidetype":"不正规半日混合潮"},{"id":17386,"cnname":"","enname":"Barcelona","cncountry":"西班牙","encountry":"Spain","lat":41.314733,"lon":2.170267,"timezone":"1","datumn":"在平均海平面下","tidetype":"不正规半日混合潮"},{"id":16901,"cnname":"","enname":"Puerto del Rosario","cncountry":"西班牙","encountry":"Spain","lat":28.491283,"lon":-13.856767,"timezone":"0","datumn":"在平均海平面下","tidetype":"不正规半日混合潮"},{"id":17189,"cnname":"","enname":"Algeciras","cncountry":"西班牙","encountry":"Spain","lat":36.133669,"lon":-5.433848,"timezone":"1","datumn":"在平均海平面下","tidetype":"不正规半日混合潮"},{"id":16906,"cnname":"","enname":"Santa Cruz de la Palma","cncountry":"西班牙","encountry":"Spain","lat":28.666666,"lon":-17.75,"timezone":"0","datumn":"在平均海平面下","tidetype":"不正规半日混合潮"},{"id":25923,"cnname":"","enname":"Gijon","cncountry":"西班牙","encountry":"Spain","lat":43.561983,"lon":-5.681383,"timezone":"1","datumn":"在平均海平面下","tidetype":"不正规半日混合潮"},{"id":26106,"cnname":"","enname":"Santa Cruz de Tenerife","cncountry":"西班牙","encountry":"Spain","lat":28.450001,"lon":-16.233333,"timezone":"0","datumn":"在平均海平面下","tidetype":"不正规半日混合潮"},{"id":27225,"cnname":"","enname":"Puerto de Santa Maria","cncountry":"西班牙","encountry":"Spain","lat":36.599998,"lon":-6.216667,"timezone":"1","datumn":"在平均海平面下","tidetype":"不正规半日混合潮"},{"id":266147,"cnname":"","enname":"Los Cristianos","cncountry":"西班牙","encountry":"Spain","lat":28.0452,"lon":-16.714667,"timezone":"0","datumn":"在平均海平面下","tidetype":"不正规半日混合潮"},{"id":336488,"cnname":"","enname":"Tarifa","cncountry":"西班牙","encountry":"Spain","lat":36,"lon":-5.616667,"timezone":"1","datumn":"在平均海平面下","tidetype":"不正规半日混合潮"},{"id":16485,"cnname":"","enname":"Helsinki","cncountry":"芬兰","encountry":"Finland","lat":60.153317,"lon":24.948967,"timezone":"2","datumn":"在平均海平面下","tidetype":"正规日潮"},{"id":15994,"cnname":"","enname":"Levuka","cncountry":"斐济群岛","encountry":"Fiji","lat":-17.683332,"lon":178.85,"timezone":"12","datumn":"在平均海平面下","tidetype":"不正规半日混合潮"},{"id":15958,"cnname":"","enname":"Lautoka","cncountry":"斐济群岛","encountry":"Fiji","lat":-17.6,"lon":177.45,"timezone":"12","datumn":"在平均海平面下","tidetype":"不正规半日混合潮"},{"id":259087,"cnname":"","enname":"Malau","cncountry":"斐济群岛","encountry":"Fiji","lat":-16.35785,"lon":179.365583,"timezone":"12","datumn":"在平均海平面下","tidetype":"不正规半日混合潮"},{"id":255289,"cnname":"","enname":"Pohnpei Harbour","cncountry":"密克罗尼西亚联邦","encountry":"Micronesia, Federated States of","lat":6.966667,"lon":158.216667,"timezone":"11","datumn":"在平均海平面下","tidetype":"不正规半日混合潮"},{"id":15773,"cnname":"","enname":"Torshavn","cncountry":"法罗群岛","encountry":"Faroe Islands","lat":61.999233,"lon":-6.760901,"timezone":"0","datumn":"在平均海平面下","tidetype":"不正规半日混合潮"},{"id":27538,"cnname":"","enname":"Vagur","cncountry":"法罗群岛","encountry":"Faroe Islands","lat":61.479843,"lon":-6.805836,"timezone":"0","datumn":"在平均海平面下","tidetype":"不正规半日混合潮"},{"id":27581,"cnname":"","enname":"Vestmanna","cncountry":"法罗群岛","encountry":"Faroe Islands","lat":62.149417,"lon":-7.164583,"timezone":"0","datumn":"在平均海平面下","tidetype":"不正规半日混合潮"},{"id":23884,"cnname":"","enname":"Klaksvik","cncountry":"法罗群岛","encountry":"Faroe Islands","lat":62.24195,"lon":-6.598983,"timezone":"0","datumn":"在平均海平面下","tidetype":"不正规半日混合潮"},{"id":23009,"cnname":"","enname":"Port Tudy","cncountry":"法国","encountry":"France","lat":47.645,"lon":-3.445667,"timezone":"1","datumn":"在平均海平面下","tidetype":"不正规半日混合潮"},{"id":28784,"cnname":"","enname":"Pauillac","cncountry":"法国","encountry":"France","lat":45.220233,"lon":-0.743767,"timezone":"1","datumn":"在平均海平面下","tidetype":"不正规半日混合潮"},{"id":28661,"cnname":"","enname":"Arcachon","cncountry":"法国","encountry":"France","lat":44.6609,"lon":-1.151233,"timezone":"1","datumn":"在平均海平面下","tidetype":"不正规半日混合潮"},{"id":29092,"cnname":"","enname":"Loctudy","cncountry":"法国","encountry":"France","lat":47.8365,"lon":-4.172183,"timezone":"1","datumn":"在平均海平面下","tidetype":"不正规半日混合潮"},{"id":29274,"cnname":"","enname":"Donges","cncountry":"法国","encountry":"France","lat":47.30465,"lon":-2.06745,"timezone":"1","datumn":"在平均海平面下","tidetype":"不正规半日混合潮"},{"id":29330,"cnname":"","enname":"Les Sables d'Olonne","cncountry":"法国","encountry":"France","lat":46.4984,"lon":-1.791717,"timezone":"1","datumn":"在平均海平面下","tidetype":"不正规半日混合潮"},{"id":29077,"cnname":"","enname":"Corniguel","cncountry":"法国","encountry":"France","lat":47.983334,"lon":-4.1,"timezone":"1","datumn":"在平均海平面下","tidetype":"不正规半日混合潮"},{"id":29037,"cnname":"","enname":"Fecamp","cncountry":"法国","encountry":"France","lat":49.766666,"lon":0.366667,"timezone":"1","datumn":"在平均海平面下","tidetype":"不正规半日混合潮"},{"id":28896,"cnname":"","enname":"Cancale","cncountry":"法国","encountry":"France","lat":48.683334,"lon":-1.85,"timezone":"1","datumn":"在平均海平面下","tidetype":"不正规半日混合潮"},{"id":28862,"cnname":"","enname":"Camaret","cncountry":"法国","encountry":"France","lat":48.266666,"lon":-4.616667,"timezone":"1","datumn":"在平均海平面下","tidetype":"不正规半日混合潮"},{"id":17813,"cnname":"","enname":"Ajaccio","cncountry":"法国","encountry":"France","lat":41.9258,"lon":8.749533,"timezone":"1","datumn":"在平均海平面下","tidetype":"不正规半日混合潮"},{"id":18117,"cnname":"","enname":"Calais","cncountry":"法国","encountry":"France","lat":50.971483,"lon":1.84235,"timezone":"1","datumn":"在平均海平面下","tidetype":"不正规半日混合潮"},{"id":17967,"cnname":"","enname":"Bordeaux","cncountry":"法国","encountry":"France","lat":44.891567,"lon":-0.534133,"timezone":"1","datumn":"在平均海平面下","tidetype":"不正规半日混合潮"},{"id":18002,"cnname":"","enname":"Boulogne-sur-Mer","cncountry":"法国","encountry":"France","lat":50.732217,"lon":1.5773,"timezone":"1","datumn":"在平均海平面下","tidetype":"不正规半日混合潮"},{"id":18012,"cnname":"","enname":"Brest","cncountry":"法国","encountry":"France","lat":48.381433,"lon":-4.460133,"timezone":"1","datumn":"在平均海平面下","tidetype":"不正规半日混合潮"},{"id":18142,"cnname":"","enname":"Cannes","cncountry":"法国","encountry":"France","lat":43.540717,"lon":7.023017,"timezone":"-4","datumn":"在平均海平面下","tidetype":"不正规半日混合潮"},{"id":18213,"cnname":"","enname":"Concarneau","cncountry":"法国","encountry":"France","lat":47.867817,"lon":-3.912833,"timezone":"1","datumn":"在平均海平面下","tidetype":"不正规半日混合潮"},{"id":18185,"cnname":"","enname":"Cherbourg","cncountry":"法国","encountry":"France","lat":49.650002,"lon":-1.616667,"timezone":"1","datumn":"在平均海平面下","tidetype":"不正规半日混合潮"},{"id":18486,"cnname":"","enname":"Gravelines","cncountry":"法国","encountry":"France","lat":51.0079,"lon":2.117101,"timezone":"1","datumn":"在平均海平面下","tidetype":"不正规半日混合潮"},{"id":18513,"cnname":"","enname":"Honfleur","cncountry":"法国","encountry":"France","lat":49.423617,"lon":0.2347,"timezone":"1","datumn":"在平均海平面下","tidetype":"不正规半日混合潮"},{"id":18468,"cnname":"","enname":"Granville","cncountry":"法国","encountry":"France","lat":48.831583,"lon":-1.602517,"timezone":"1","datumn":"在平均海平面下","tidetype":"不正规半日混合潮"},{"id":18294,"cnname":"","enname":"Dieppe","cncountry":"法国","encountry":"France","lat":49.937417,"lon":1.085967,"timezone":"1","datumn":"在平均海平面下","tidetype":"不正规半日混合潮"},{"id":19200,"cnname":"","enname":"Nice","cncountry":"法国","encountry":"France","lat":43.6925,"lon":7.286983,"timezone":"1","datumn":"在平均海平面下","tidetype":"不正规半日混合潮"},{"id":19410,"cnname":"","enname":"Paimpol","cncountry":"法国","encountry":"France","lat":48.7807,"lon":-3.0436,"timezone":"1","datumn":"在平均海平面下","tidetype":"不正规半日混合潮"},{"id":19490,"cnname":"","enname":"Port Vendres","cncountry":"法国","encountry":"France","lat":42.518933,"lon":3.111767,"timezone":"1","datumn":"在平均海平面下","tidetype":"不正规半日混合潮"},